Xﬂ}èzjXX:qˇÈ{÷H∑`0‡æ@Rå5S$($Millis	m_currentPosition	m_pressedButtonDebug	m_bytesToSent	CurrentPosition	CurrentDirection	TargetPosition	MSStopped	startButton	stopButton	parkingButton	DiagA	DiagB	m_P	m_I	m_D	m_goalType	m_goal	m_lastError	m_errorSum	m_lastFilteredYaw	UI	yaw	roll	pitch	freq	magMin[0]	magMin[1]	magMin[2]	magMax[0]	magMax[1]	magMax[2]	m_speed	m_speed.tripMileage	m_speed.totalMileage	m_speed.waterTemp	m_lampIntensity	m_wind.apparentAngle	m_wind.apparentSpeed	m_wind.displayInKnots	m_wind.displayInMpS	m_depth.anchorAlarm	m_depth.deepAlarm	m_depth.defective	m_depth.depthBelowTransductor	m_depth.metricUnits	m_depth.shallowAlarm	m_depth.unknown	GPS	
550	0	0	0	0	1	0	50	1	1	1	0	0	4.00	0.20	3.00	0	0.00	0.00	0.00	0.00	-	nan	nan	nan	95.13	0.00	0.00	0.00	0.00	0.00	0.00	6.60	-1.00	-1.00	14.00	255	0.00	0.00	1	0	0	0	0	163.28	1	0	1	-
1050	0	0	0	0	1	0	50	1	1	1	0	0	4.00	0.20	3.00	0	0.00	0.00	0.00	0.00	-	nan	nan	nan	97.77	0.00	0.00	0.00	0.00	0.00	0.00	6.60	-1.00	-1.00	14.00	255	306.00	0.00	1	0	0	0	0	163.28	1	0	1	-
1550	0	0	0	0	1	0	50	1	1	1	0	0	4.00	0.20	3.00	0	0.00	0.00	0.00	0.00	-	nan	nan	nan	108.60	0.00	0.00	0.00	0.00	0.00	0.00	6.60	-1.00	-1.00	14.00	255	306.00	0.00	1	0	0	0	0	69.34	1	0	1	-
2050	0	0	0	0	1	0	50	1	1	1	0	0	4.00	0.20	3.00	0	0.00	0.00	0.00	0.00	-	nan	nan	nan	83.89	0.00	0.00	0.00	0.00	0.00	0.00	6.50	-1.00	-1.00	14.00	255	313.00	0.00	1	0	0	0	0	69.34	1	0	1	-
2550	0	0	0	0	1	0	50	1	1	1	0	0	4.00	0.20	3.00	0	0.00	0.00	0.00	0.00	-	nan	nan	nan	inf	0.00	0.00	0.00	0.00	0.00	0.00	6.50	-1.00	-1.00	14.00	255	273.00	0.00	1	0	0	0	0	69.34	1	0	1	-
3050	0	0	0	0	1	0	50	1	1	1	0	0	4.00	0.20	3.00	0	0.00	0.00	0.00	0.00	-	nan	nan	nan	123.82	0.00	0.00	0.00	0.00	0.00	0.00	6.50	-1.00	-1.00	14.00	255	273.00	0.00	1	0	0	0	0	69.34	1	0	1	-
starting
-69
-69.00
-48
-48.00
-220
-220.00
122
122.00
144
144.00
50
50.00
6
setting
3550	0	0	0	0	1	0	50	1	1	1	0	0	4.00	0.20	3.00	0	0.00	0.00	0.00	0.00	-	nan	nan	nan	123.64	-69.00	-48.00	-220.00	122.00	144.00	50.00	6.50	-1.00	-1.00	14.00	255	273.00	0.00	1	0	0	0	0	69.34	1	0	1	-
4050	0	0	0	0	1	0	50	1	1	1	0	0	4.00	0.20	3.00	0	0.00	0.00	0.00	0.00	-	nan	nan	nan	127.81	-69.00	-48.00	-220.00	122.00	144.00	50.00	6.40	-1.00	-1.00	14.00	255	202.00	0.00	1	0	0	0	0	69.34	1	0	1	-
4550	0	0	0	0	1	0	50	1	1	1	0	0	4.00	0.20	3.00	0	0.00	0.00	0.00	0.00	-	nan	nan	nan	93.77	-69.00	-48.00	-220.00	122.00	144.00	50.00	6.40	-1.00	-1.00	14.00	255	167.00	0.00	1	0	0	0	0	69.34	1	0	1	-
5050	0	0	0	0	1	0	50	1	1	1	0	0	4.00	0.20	3.00	0	0.00	0.00	0.00	0.00	-	nan	nan	nan	111.86	-69.00	-48.00	-220.00	122.00	144.00	50.00	6.40	-1.00	-1.00	14.00	255	167.00	0.00	1	0	0	0	0	69.34	1	0	1	-
5550	0	0	0	0	1	0	50	1	1	1	0	0	4.00	0.20	3.00	0	0.00	0.00	0.00	0.00	-	nan	nan	nan	95.46	-69.00	-48.00	-220.00	122.00	144.00	50.00	6.30	-1.00	-1.00	14.00	255	181.00	0.00	1	0	0	0	0	69.34	1	0	1	-
6050	0	0	0	0	1	0	50	1	1	1	0	0	4.00	0.20	3.00	0	0.00	0.00	0.00	0.00	-	nan	nan	nan	100.04	-69.00	-48.00	-220.00	122.00	144.00	50.00	6.30	-1.00	-1.00	14.00	255	181.00	0.00	1	0	0	0	0	69.34	1	0	1	-
6550	0	0	0	0	1	0	50	1	1	1	0	0	4.00	0.20	3.00	0	0.00	0.00	0.00	0.00	-	nan	nan	nan	97.66	-69.00	-48.00	-220.00	122.00	144.00	50.00	6.30	-1.00	-1.00	14.00	255	162.00	0.00	1	0	0	0	0	69.34	1	0	1	-
7050	0	0	0	0	1	0	50	1	1	1	0	0	4.00	0.20	3.00	0	0.00	0.00	0.00	0.00	-	nan	nan	nan	108.55	-69.00	-48.00	-220.00	122.00	144.00	50.00	6.30	-1.00	-1.00	14.00	255	162.00	0.00	1	0	0	0	0	69.34	1	0	1	-
7550	0	0	0	0	1	0	50	1	1	1	0	0	4.00	0.20	3.00	0	0.00	0.00	0.00	0.00	-	nan	nan	nan	95.24	-69.00	-48.00	-220.00	122.00	144.00	50.00	6.20	-1.00	-1.00	14.00	255	206.00	0.00	1	0	0	0	0	69.34	1	0	1	-
8050	0	0	0	0	1	0	50	1	1	1	0	0	4.00	0.20	3.00	0	0.00	0.00	0.00	0.00	-	nan	nan	nan	20.93	-69.00	-48.00	-220.00	122.00	144.00	50.00	6.20	-1.00	-1.00	14.00	255	206.00	0.00	1	0	0	0	0	69.34	1	0	1	-
8550	0	0	0	0	1	0	50	1	1	1	0	0	4.00	0.20	3.00	0	0.00	0.00	0.00	0.00	-	nan	nan	nan	inf	-69.00	-48.00	-220.00	122.00	144.00	50.00	6.20	-1.00	-1.00	14.00	255	237.00	0.00	1	0	0	0	0	69.34	1	0	1	-
9050	0	0	0	0	1	0	50	1	1	1	0	0	4.00	0.20	3.00	0	0.00	0.00	0.00	0.00	-	nan	nan	nan	inf	-69.00	-48.00	-220.00	122.00	144.00	50.00	6.20	-1.00	-1.00	14.00	255	237.00	0.00	1	0	0	0	0	12.16	1	0	1	-
9550	0	0	0	0	1	0	50	1	1	1	0	0	4.00	0.20	3.00	0	0.00	0.00	0.00	0.00	-	nan	nan	nan	inf	-69.00	-48.00	-220.00	122.00	144.00	50.00	6.10	-1.00	-1.00	14.00	255	248.00	0.00	1	0	0	0	0	12.16	1	0	1	-
10050	0	0	0	0	1	0	50	1	1	1	0	0	4.00	0.20	3.00	0	0.00	0.00	0.00	0.00	-	nan	nan	nan	119.56	-69.00	-48.00	-220.00	122.00	144.00	50.00	6.10	-1.00	-1.00	14.00	255	248.00	0.00	1	0	0	0	0	163.34	1	0	1	-
10550	0	0	0	0	1	0	50	1	1	1	0	0	4.00	0.20	3.00	0	0.00	0.00	0.00	0.00	-	nan	nan	nan	103.86	-69.00	-48.00	-220.00	122.00	144.00	50.00	6.10	-1.00	-1.00	14.00	255	206.00	0.00	1	0	0	0	0	163.34	1	0	1	-
11051	0	0	0	0	1	0	50	1	1	1	0	0	4.00	0.20	3.00	0	0.00	0.00	0.00	0.00	-	nan	nan	nan	100.04	-69.00	-48.00	-220.00	122.00	144.00	50.00	6.00	-1.00	-1.00	14.00	255	206.00	0.00	1	0	0	0	0	163.34	1	0	1	-
11550	0	0	0	0	1	0	50	1	1	1	0	0	4.00	0.20	3.00	0	0.00	0.00	0.00	0.00	-	nan	nan	nan	99.96	-69.00	-48.00	-220.00	122.00	144.00	50.00	6.00	-1.00	-1.00	14.00	255	201.00	0.00	1	0	0	0	0	163.34	1	0	1	-
12050	0	0	0	0	1	0	50	1	1	1	0	0	4.00	0.20	3.00	0	0.00	0.00	0.00	0.00	-	nan	nan	nan	108.51	-69.00	-48.00	-220.00	122.00	144.00	50.00	6.00	-1.00	-1.00	14.00	255	201.00	0.00	1	0	0	0	0	163.34	1	0	1	-
12651	0	0	0	0	1	0	50	1	1	1	0	0	4.00	0.20	3.00	0	0.00	0.00	0.00	0.00	-	nan	nan	nan	inf	-69.00	-48.00	-220.00	122.00	144.00	50.00	6.00	-1.00	-1.00	14.00	255	159.00	0.00	1	0	0	0	0	163.34	1	0	1	-
13050	0	0	0	0	1	0	50	1	1	1	0	0	4.00	0.20	3.00	0	0.00	0.00	0.00	0.00	-	nan	nan	nan	inf	-69.00	-48.00	-220.00	122.00	144.00	50.00	5.90	-1.00	-1.00	14.00	255	159.00	0.00	1	0	0	0	0	163.43	1	0	1	-
13550	0	0	0	0	1	0	50	1	1	1	0	0	4.00	0.20	3.00	0	0.00	0.00	0.00	0.00	-	nan	nan	nan	127.42	-69.00	-48.00	-220.00	122.00	144.00	50.00	5.90	-1.00	-1.00	14.00	255	115.00	0.00	1	0	0	0	0	163.43	1	0	1	-
14050	0	0	0	0	1	0	50	1	1	1	0	0	4.00	0.20	3.00	0	0.00	0.00	0.00	0.00	-	nan	nan	nan	103.78	-69.00	-48.00	-220.00	122.00	144.00	50.00	5.90	-1.00	-1.00	14.00	255	115.00	0.00	1	0	0	0	0	69.34	1	0	1	-
14550	0	0	0	0	1	0	50	1	1	1	0	0	4.00	0.20	3.00	0	0.00	0.00	0.00	0.00	-	nan	nan	nan	97.81	-69.00	-48.00	-220.00	122.00	144.00	50.00	5.90	-1.00	-1.00	14.00	255	141.00	0.00	1	0	0	0	0	69.34	1	0	1	-
15050	0	0	0	0	1	0	50	1	1	1	0	0	4.00	0.20	3.00	0	0.00	0.00	0.00	0.00	-	nan	nan	nan	95.24	-69.00	-48.00	-220.00	122.00	144.00	50.00	5.80	-1.00	-1.00	14.00	255	141.00	0.00	1	0	0	0	0	69.34	1	0	1	-
15550	0	0	0	0	1	0	50	1	1	1	0	0	4.00	0.20	3.00	0	0.00	0.00	0.00	0.00	-	nan	nan	nan	108.51	-69.00	-48.00	-220.00	122.00	144.00	50.00	5.80	-1.00	-1.00	14.00	255	154.00	0.00	1	0	0	0	0	34.75	1	0	1	-
16050	0	0	0	0	1	0	50	1	1	1	0	0	4.00	0.20	3.00	0	0.00	0.00	0.00	0.00	-	nan	nan	nan	99.96	-69.00	-48.00	-220.00	122.00	144.00	50.00	5.80	-1.00	-1.00	14.00	255	154.00	0.00	1	0	0	0	0	34.75	1	0	1	-
16550	0	0	0	0	1	0	50	1	1	1	0	0	4.00	0.20	3.00	0	0.00	0.00	0.00	0.00	-	nan	nan	nan	97.73	-69.00	-48.00	-220.00	122.00	144.00	50.00	5.70	-1.00	-1.00	14.00	255	165.00	0.00	1	0	0	0	0	16.67	1	0	1	-
17050	0	0	0	0	1	0	50	1	1	1	0	0	4.00	0.20	3.00	0	0.00	0.00	0.00	0.00	-	nan	nan	nan	97.92	-69.00	-48.00	-220.00	122.00	144.00	50.00	5.70	-1.00	-1.00	14.00	255	165.00	0.00	1	0	0	0	0	16.67	1	0	1	-
17550	0	0	0	0	1	0	50	1	1	1	0	0	4.00	0.20	3.00	0	0.00	0.00	0.00	0.00	-	nan	nan	nan	22.38	-69.00	-48.00	-220.00	122.00	144.00	50.00	5.70	-1.00	-1.00	14.00	255	197.00	0.00	1	0	0	0	0	16.67	1	0	1	-
18050	0	0	0	0	1	0	50	1	1	1	0	0	4.00	0.20	3.00	0	0.00	0.00	0.00	0.00	-	nan	nan	nan	inf	-69.00	-48.00	-220.00	122.00	144.00	50.00	5.70	-1.00	-1.00	14.00	255	197.00	0.00	1	0	0	0	0	163.28	1	0	1	-
18550	0	0	0	0	1	0	50	1	1	1	0	0	4.00	0.20	3.00	0	0.00	0.00	0.00	0.00	-	nan	nan	nan	127.42	-69.00	-48.00	-220.00	122.00	144.00	50.00	5.60	-1.00	-1.00	14.00	255	226.00	0.00	1	0	0	0	0	163.28	1	0	1	-
19050	0	0	0	0	1	0	50	1	1	1	0	0	4.00	0.20	3.00	0	0.00	0.00	0.00	0.00	-	nan	nan	nan	95.97	-69.00	-48.00	-220.00	122.00	144.00	50.00	5.60	-1.00	-1.00	14.00	255	226.00	0.00	1	0	0	0	0	69.40	1	0	1	-
Äºë–HzÃ%Q—-¿¸0Ã1@‰XH))@îÜF0íMillis	m_currentPosition	m_pressedButtonDebug	m_bytesToSent	CurrentPosition	CurrentDirection	TargetPosition	MSStopped	startButton	stopButton	parkingButton	DiagA	DiagB	m_P	m_I	m_D	m_goalType	m_goal	m_lastError	m_errorSum	m_lastFilteredYaw	UI	yaw	roll	pitch	freq	magMin[0]	magMin[1]	magMin[2]	magMax[0]	magMax[1]	magMax[2]	m_speed	m_speed.tripMileage	m_speed.totalMileage	m_speed.waterTemp	m_lampIntensity	m_wind.apparentAngle	m_wind.apparentSpeed	m_wind.displayInKnots	m_wind.displayInMpS	m_depth.anchorAlarm	m_depth.deepAlarm	m_depth.defective	m_depth.depthBelowTransductor	m_depth.metricUnits	m_depth.shallowAlarm	m_depth.unknown	GPS	
550	0	0	0	0	1	0	50	1	1	1	0	0	4.00	0.20	3.00	0	0.00	0.00	0.00	359.05	-	350.83	-19.84	-20.21	97.62	-69.00	-48.00	-220.00	122.00	144.00	50.00	-1.00	-1.00	-1.00	14.00	255	210.00	0.00	1	0	0	0	0	0.00	0	0	0	-
1050	0	0	0	0	1	0	50	1	1	1	0	0	4.00	0.20	3.00	0	0.00	0.00	0.00	358.66	-	4.22	-37.65	-54.50	95.13	-69.00	-48.00	-220.00	122.00	144.00	50.00	-1.00	-1.00	-1.00	14.00	255	210.00	0.00	1	0	0	0	0	163.13	1	0	1	-
1550	0	0	0	0	1	0	50	1	1	1	0	0	4.00	0.20	3.00	0	0.00	0.00	0.00	0.36	-	37.73	-44.01	-100.98	111.56	-69.00	-48.00	-220.00	122.00	144.00	50.00	5.10	-1.00	-1.00	14.00	255	205.00	0.00	1	0	0	0	0	163.13	1	0	1	-
2050	0	0	0	0	1	0	50	1	1	1	0	0	4.00	0.20	3.00	0	0.00	0.00	0.00	5.03	-	71.24	-32.15	-141.34	95.13	-69.00	-48.00	-220.00	122.00	144.00	50.00	5.10	-1.00	-1.00	14.00	255	205.00	0.00	1	0	0	0	0	163.13	1	0	1	-
2550	0	0	0	0	1	0	50	1	1	1	0	0	4.00	0.20	3.00	0	0.00	0.00	0.00	11.86	-	87.98	-12.74	-164.53	95.09	-69.00	-48.00	-220.00	122.00	144.00	50.00	5.10	-1.00	-1.00	14.00	255	250.00	0.00	1	0	0	0	0	163.13	1	0	1	-
3050	0	0	0	0	1	0	50	1	1	1	0	0	4.00	0.20	3.00	0	0.00	0.00	0.00	18.82	-	93.55	-1.82	-176.26	97.66	-69.00	-48.00	-220.00	122.00	144.00	50.00	5.00	-1.00	-1.00	14.00	255	315.00	0.00	1	0	0	0	0	163.13	1	0	1	-
3550	0	0	0	0	1	0	50	1	1	1	0	0	4.00	0.20	3.00	0	0.00	0.00	0.00	25.64	-	94.98	0.85	-179.73	95.06	-69.00	-48.00	-220.00	122.00	144.00	50.00	5.00	-1.00	-1.00	14.00	255	315.00	0.00	1	0	0	0	0	163.13	1	0	1	-
4050	0	0	0	0	1	0	50	1	1	1	0	0	4.00	0.20	3.00	0	0.00	0.00	0.00	31.90	-	95.61	1.63	179.49	95.20	-69.00	-48.00	-220.00	122.00	144.00	50.00	5.00	-1.00	-1.00	14.00	255	315.00	0.00	1	0	0	0	0	163.13	1	0	1	-
4550	0	0	0	0	1	0	50	1	1	1	0	0	4.00	0.20	3.00	0	0.00	0.00	0.00	37.62	-	95.61	1.78	178.53	88.43	-69.00	-48.00	-220.00	122.00	144.00	50.00	5.00	-1.00	-1.00	14.00	255	334.00	0.00	1	0	0	0	0	163.13	1	0	1	-
5050	0	0	0	0	1	0	50	1	1	1	0	0	4.00	0.20	3.00	0	0.00	0.00	0.00	42.84	-	95.28	1.69	178.85	101.46	-69.00	-48.00	-220.00	122.00	144.00	50.00	4.90	-1.00	-1.00	14.00	255	334.00	0.00	1	0	0	0	0	163.13	1	0	1	-
5550	0	0	0	0	1	0	50	1	1	1	0	0	4.00	0.20	3.00	0	0.00	0.00	0.00	40.58	-	0.91	0.15	1.50	100.20	-69.00	-48.00	-220.00	122.00	144.00	50.00	4.90	-1.00	-1.00	14.00	255	325.00	0.00	1	0	0	0	0	163.22	1	0	1	-
6050	0	0	0	0	1	0	50	1	1	1	0	0	4.00	0.20	3.00	0	0.00	0.00	0.00	36.94	-	359.94	0.52	1.27	90.51	-69.00	-48.00	-220.00	122.00	144.00	50.00	4.90	-1.00	-1.00	14.00	255	327.00	0.00	1	0	0	0	0	163.22	1	0	1	-
6550	0	0	0	0	1	0	50	1	1	1	0	0	4.00	0.20	3.00	0	0.00	0.00	0.00	33.66	-	359.63	0.64	-0.14	88.56	-69.00	-48.00	-220.00	122.00	144.00	50.00	4.90	-1.00	-1.00	14.00	255	327.00	0.00	1	0	0	0	0	163.22	1	0	1	-
7050	0	0	0	0	1	0	50	1	1	1	0	0	4.00	0.20	3.00	0	0.00	0.00	0.00	30.60	-	359.62	0.41	0.57	100.16	-69.00	-48.00	-220.00	122.00	144.00	50.00	4.80	-1.00	-1.00	14.00	255	309.00	0.00	1	0	0	0	0	163.22	1	0	1	-
7550	0	0	0	0	1	0	50	1	1	1	0	0	4.00	0.20	3.00	0	0.00	0.00	0.00	27.82	-	359.87	-0.21	1.73	86.30	-69.00	-48.00	-220.00	122.00	144.00	50.00	4.80	-1.00	-1.00	14.00	255	309.00	0.00	1	0	0	0	0	163.22	1	0	1	-
8050	0	0	0	0	1	0	50	1	1	1	0	0	4.00	0.20	3.00	0	0.00	0.00	0.00	25.33	-	0.36	0.02	0.52	86.33	-69.00	-48.00	-220.00	122.00	144.00	50.00	4.80	-1.00	-1.00	14.00	255	276.00	0.00	1	0	0	0	0	163.22	1	0	1	-
8550	0	0	0	0	1	0	50	1	1	1	0	0	4.00	0.20	3.00	0	0.00	0.00	0.00	23.08	-	0.29	0.80	-0.50	101.67	-69.00	-48.00	-220.00	122.00	144.00	50.00	4.70	-1.00	-1.00	14.00	255	276.00	0.00	1	0	0	0	0	163.22	1	0	1	-
9050	0	0	0	0	1	0	50	1	1	1	0	0	4.00	0.20	3.00	0	0.00	0.00	0.00	21.02	-	0.30	0.93	0.60	127.62	-69.00	-48.00	-220.00	122.00	144.00	50.00	4.70	-1.00	-1.00	14.00	255	276.00	0.00	1	0	0	0	0	163.22	1	0	1	-
9550	0	0	0	0	1	0	50	1	1	1	0	0	4.00	0.20	3.00	0	0.00	0.00	0.00	19.15	-	0.02	-0.21	1.15	93.91	-69.00	-48.00	-220.00	122.00	144.00	50.00	4.70	-1.00	-1.00	14.00	255	248.00	0.00	1	0	0	0	0	163.22	1	0	1	-
10050	0	0	0	0	1	0	50	1	1	1	0	0	4.00	0.20	3.00	0	0.00	0.00	0.00	17.69	-	2.56	-1.31	0.51	100.52	-69.00	-48.00	-220.00	122.00	144.00	50.00	4.70	-1.00	-1.00	14.00	255	248.00	0.00	1	0	0	0	0	163.22	1	0	1	-
10550	0	0	0	0	1	0	50	1	1	1	0	0	4.00	0.20	3.00	0	0.00	0.00	0.00	16.35	-	2.64	0.01	0.83	108.41	-69.00	-48.00	-220.00	122.00	144.00	50.00	4.60	-1.00	-1.00	14.00	255	240.00	0.00	1	0	0	0	0	163.22	1	0	1	-
11051	0	0	0	0	1	0	50	1	1	1	0	0	4.00	0.20	3.00	0	0.00	0.00	0.00	15.10	-	1.78	0.78	1.31	100.20	-69.00	-48.00	-220.00	122.00	144.00	50.00	4.60	-1.00	-1.00	14.00	255	253.00	0.00	1	0	0	0	0	163.22	1	0	1	-
11550	0	0	0	0	1	0	50	1	1	1	0	0	4.00	0.20	3.00	0	0.00	0.00	0.00	14.09	-	3.50	-0.31	1.11	95.35	-69.00	-48.00	-220.00	122.00	144.00	50.00	4.60	-1.00	-1.00	14.00	255	253.00	0.00	1	0	0	0	0	163.22	1	0	1	-
12050	0	0	0	0	1	0	50	1	1	1	0	0	4.00	0.20	3.00	0	0.00	0.00	0.00	13.19	-	3.26	-0.92	0.52	108.70	-69.00	-48.00	-220.00	122.00	144.00	50.00	4.60	-1.00	-1.00	14.00	255	264.00	0.00	1	0	0	0	0	163.22	1	0	1	-
12550	0	0	0	0	1	0	50	1	1	1	0	0	4.00	0.20	3.00	0	0.00	0.00	0.00	12.49	-	5.04	0.06	-0.40	95.20	-69.00	-48.00	-220.00	122.00	144.00	50.00	4.50	-1.00	-1.00	14.00	255	264.00	0.00	1	0	0	0	0	163.22	1	0	1	-
13050	0	0	0	0	1	0	50	1	1	1	0	0	4.00	0.20	3.00	0	0.00	0.00	0.00	12.01	-	6.22	-0.45	0.68	95.35	-69.00	-48.00	-220.00	122.00	144.00	50.00	4.50	-1.00	-1.00	14.00	255	251.00	0.00	1	0	0	0	0	16.70	1	0	1	-
13550	0	0	0	0	1	0	50	1	1	1	0	0	4.00	0.20	3.00	0	0.00	0.00	0.00	11.41	-	3.89	-1.22	2.16	100.24	-69.00	-48.00	-220.00	122.00	144.00	50.00	4.50	-1.00	-1.00	14.00	255	251.00	0.00	1	0	0	0	0	16.70	1	0	1	-
14050	0	0	0	0	1	0	50	1	1	1	0	0	4.00	0.20	3.00	0	0.00	0.00	0.00	10.64	-	2.34	-0.56	0.96	112.16	-69.00	-48.00	-220.00	122.00	144.00	50.00	4.40	3.36	9.60	14.00	255	222.00	0.00	1	0	0	0	0	16.70	1	0	1	-
14550	0	0	0	0	1	0	50	1	1	1	0	0	4.00	0.20	3.00	0	0.00	0.00	0.00	9.89	-	1.97	0.89	-0.64	97.66	-69.00	-48.00	-220.00	122.00	144.00	50.00	4.40	3.36	9.60	14.00	255	222.00	0.00	1	0	0	0	0	162.79	1	0	1	-
15050	0	0	0	0	1	0	50	1	1	1	0	0	4.00	0.20	3.00	0	0.00	0.00	0.00	9.15	-	1.24	1.12	0.34	86.54	-69.00	-48.00	-220.00	122.00	144.00	50.00	4.40	3.36	9.60	14.00	255	217.00	0.00	1	0	0	0	0	162.79	1	0	1	-
5550	0	0	0	0	1	0	50	1	1	1	0	0	4.00	0.20	3.00	0	0.00	0.00	0.00	8.41	-	0.83	-0.68	1.34	98.93	-69.00	-48.00	-220.00	122.00	144.00	50.00	4.40	3.36	9.60	14.00	255	217.00	0.00	1	0	0	0	0	162.79	1	0	1	-
16050	0	0	0	0	1	0	50	1	1	1	0	0	4.00	0.20	3.00	0	0.00	0.00	0.00	7.71	-	0.90	-0.97	1.19	91.84	-69.00	-48.00	-220.00	122.00	144.00	50.00	4.30	3.36	9.60	14.00	255	235.00	0.00	1	0	0	0	0	34.75	1	0	1	-
16550	0	0	0	0	1	0	50	1	1	1	0	0	4.00	0.20	3.00	0	0.00	0.00	0.00	7.11	-	0.96	0.81	-0.03	91.71	-69.00	-48.00	-220.00	122.00	144.00	50.00	4.30	3.36	9.60	14.00	255	235.00	0.00	1	0	0	0	0	34.75	1	0	1	-
17050	0	0	0	0	1	0	50	1	1	1	0	0	4.00	0.20	3.00	0	0.00	0.00	0.00	6.55	-	0.75	0.47	0.12	91.81	-69.00	-48.00	-220.00	122.00	144.00	50.00	4.30	3.36	9.60	14.00	255	282.00	0.00	1	0	0	0	0	34.75	1	0	1	-
17550	0	0	0	0	1	0	50	1	1	1	0	0	4.00	0.20	3.00	0	0.00	0.00	0.00	6.02	-	1.25	0.03	0.65	101.63	-69.00	-48.00	-220.00	122.00	144.00	50.00	4.20	3.36	9.60	14.00	255	282.00	0.00	1	0	0	0	0	34.75	1	0	1	-
18050	0	0	0	0	1	0	50	1	1	1	0	0	4.00	0.20	3.00	0	0.00	0.00	0.00	5.59	-	1.03	1.13	0.95	89.64	-69.00	-48.00	-220.00	122.00	144.00	50.00	4.20	3.36	9.60	14.00	255	315.00	0.00	1	0	0	0	0	34.75	1	0	1	-
18550	0	0	0	0	1	0	50	1	1	1	0	0	4.00	0.20	3.00	0	0.00	0.00	0.00	5.17	-	0.77	1.15	0.74	91.84	-69.00	-48.00	-220.00	122.00	144.00	50.00	4.20	3.36	9.60	14.00	255	315.00	0.00	1	0	0	0	0	18.14	1	0	1	-
19050	0	0	0	0	1	0	50	1	1	1	0	0	4.00	0.20	3.00	0	0.00	0.00	0.00	4.77	-	0.69	-0.76	0.58	127.94	-69.00	-48.00	-220.00	122.00	144.00	50.00	4.20	3.36	9.60	14.00	255	337.00	0.00	1	0	0	0	0	18.14	1	0	1	-
19550	0	0	0	0	1	0	50	1	1	1	0	0	4.00	0.20	3.00	0	0.00	0.00	0.00	4.37	-	0.24	-1.12	0.24	93.74	-69.00	-48.00	-220.00	122.00	144.00	50.00	4.10	3.36	9.60	14.00	255	337.00	0.00	1	0	0	0	0	18.14	1	0	1	-
20050	0	0	0	0	1	0	50	1	1	1	0	0	4.00	0.20	3.00	0	0.00	0.00	0.00	4.01	-	0.40	0.76	0.27	100.52	-69.00	-48.00	-220.00	122.00	144.00	50.00	4.10	3.36	9.60	14.00	255	337.00	0.00	1	0	0	0	0	163.13	1	0	1	-
20550	0	0	0	0	1	0	50	1	1	1	0	0	4.00	0.20	3.00	0	0.00	0.00	0.00	3.98	-	3.74	0.75	0.82	97.77	-69.00	-48.00	-220.00	122.00	144.00	50.00	4.10	3.36	9.60	14.00	255	337.00	0.00	1	0	0	0	0	163.13	1	0	1	-
21050	0	0	0	0	1	0	50	1	1	1	0	0	4.00	0.20	3.00	0	0.00	0.00	0.00	3.97	-	3.08	-0.77	1.25	108.65	-69.00	-48.00	-220.00	122.00	144.00	50.00	4.10	3.36	9.60	14.00	255	292.00	0.00	1	0	0	0	0	34.69	1	0	1	-
21550	0	0	0	0	1	0	50	1	1	1	0	0	4.00	0.20	3.00	0	0.00	0.00	0.00	4.15	-	5.57	-1.43	1.10	94.91	-69.00	-48.00	-220.00	122.00	144.00	50.00	4.00	3.36	9.60	14.00	255	292.00	0.00	1	0	0	0	0	34.69	1	0	1	-
22050	0	0	0	0	1	0	50	1	1	1	0	0	4.00	0.20	3.00	0	0.00	0.00	0.00	4.49	-	7.05	-0.87	0.33	97.89	-69.00	-48.00	-220.00	122.00	144.00	50.00	4.00	3.36	9.60	14.00	255	237.00	0.00	1	0	0	0	0	34.69	1	0	1	-
22550	0	0	0	0	1	0	50	1	1	1	0	0	4.00	0.20	3.00	0	0.00	0.00	0.00	4.96	-	8.86	-0.65	-0.14	97.62	-69.00	-48.00	-220.00	122.00	144.00	50.00	4.00	3.36	9.60	14.00	255	237.00	0.00	1	0	0	0	0	163.16	1	0	1	-
23050	0	0	0	0	1	0	50	1	1	1	0	0	4.00	0.20	3.00	0	0.00	0.00	0.00	5.50	-	9.24	-1.41	1.05	108.32	-69.00	-48.00	-220.00	122.00	144.00	50.00	4.00	3.36	9.60	14.00	255	215.00	0.00	1	0	0	0	0	163.16	1	0	1	-
23550	0	0	0	0	1	0	50	1	1	1	0	0	4.00	0.20	3.00	0	0.00	0.00	0.00	6.03	-	9.76	-1.48	2.11	97.66	-69.00	-48.00	-220.00	122.00	144.00	50.00	4.00	3.36	9.60	14.00	255	215.00	0.00	1	0	0	0	0	70.90	1	0	1	-
24050	0	0	0	0	1	0	50	1	1	1	0	0	4.00	0.20	3.00	0	0.00	0.00	0.00	6.22	-	6.25	-1.67	0.96	97.47	-69.00	-48.00	-220.00	122.00	144.00	50.00	4.00	3.36	9.60	14.00	255	234.00	0.00	1	0	0	0	0	70.90	1	0	1	-
24550	0	0	0	0	1	0	50	1	1	1	0	0	4.00	0.20	3.00	0	0.00	0.00	0.00	6.14	-	4.30	-1.50	0.11	108.65	-69.00	-48.00	-220.00	122.00	144.00	50.00	4.00	3.36	9.60	14.00	255	234.00	0.00	1	0	0	0	0	70.90	1	0	1	-
25050	0	0	0	0	1	0	50	1	1	1	0	0	4.00	0.20	3.00	0	0.00	0.00	0.00	5.95	-	3.38	-0.31	0.82	97.47	-69.00	-48.00	-220.00	122.00	144.00	50.00	4.10	3.36	9.60	14.00	255	271.00	0.00	1	0	0	0	0	70.90	1	0	1	-
25550	0	0	0	0	1	0	50	1	1	1	0	0	4.00	0.20	3.00	0	0.00	0.00	0.00	5.68	-	2.82	1.07	0.54	95.35	-69.00	-48.00	-220.00	122.00	144.00	50.00	4.10	3.36	9.60	14.00	255	271.00	0.00	1	0	0	0	0	70.90	1	0	1	-
26050	0	0	0	0	1	0	50	1	1	1	0	0	4.00	0.20	3.00	0	0.00	0.00	0.00	5.43	-	2.59	0.84	-0.03	97.47	-69.00	-48.00	-220.00	122.00	144.00	50.00	4.10	3.36	9.60	14.00	255	281.00	0.00	1	0	0	0	0	163.16	1	0	1	-
26550	0	0	0	0	1	0	50	1	1	1	0	0	4.00	0.20	3.00	0	0.00	0.00	0.00	5.15	-	2.32	-0.20	1.06	108.74	-69.00	-48.00	-220.00	122.00	144.00	50.00	4.20	3.36	9.60	14.00	255	281.00	0.00	1	0	0	0	0	163.16	1	0	1	-
27051	0	0	0	0	1	0	50	1	1	1	0	0	4.00	0.20	3.00	0	0.00	0.00	0.00	4.89	-	2.20	-0.24	1.17	100.20	-69.00	-48.00	-220.00	122.00	144.00	50.00	4.20	3.36	9.60	14.00	255	245.00	0.00	1	0	0	0	0	163.16	1	0	1	-
27550	0	0	0	0	1	0	50	1	1	1	0	0	4.00	0.20	3.00	0	0.00	0.00	0.00	4.65	-	2.28	-0.27	-0.01	100.04	-69.00	-48.00	-220.00	122.00	144.00	50.00	4.20	3.36	9.60	14.00	255	245.00	0.00	1	0	0	0	0	70.90	1	0	1	-
28050	0	0	0	0	1	0	50	1	1	1	0	0	4.00	0.20	3.00	0	0.00	0.00	0.00	4.43	-	1.95	-0.20	0.33	108.37	-69.00	-48.00	-220.00	122.00	144.00	50.00	4.20	3.36	9.60	14.00	255	233.00	0.00	1	0	0	0	0	70.90	1	0	1	-
28550	0	0	0	0	1	0	50	1	1	1	0	0	4.00	0.20	3.00	0	0.00	0.00	0.00	4.21	-	1.98	0.65	0.83	88.43	-69.00	-48.00	-220.00	122.00	144.00	50.00	4.30	3.36	9.60	14.00	255	233.00	0.00	1	0	0	0	0	34.69	1	0	1	-
29050	0	0	0	0	1	0	50	1	1	1	0	0	4.00	0.20	3.00	0	0.00	0.00	0.00	4.05	-	2.72	1.21	0.63	94.09	-69.00	-48.00	-220.00	122.00	144.00	50.00	4.30	3.36	9.60	14.00	255	238.00	0.00	1	0	0	0	0	34.69	1	0	1	-
29550	0	0	0	0	1	0	50	1	1	1	0	0	400	0.20	3.00	0	0.00	0.00	0.00	3.94	-	2.68	0.38	0.83	119.62	-69.00	-48.00	-220.00	122.00	144.00	50.00	4.30	3.36	9.60	14.00	255	238.00	0.00	1	0	0	0	0	16.67	1	0	1	-
30050	0	0	0	0	1	0	50	1	1	1	0	0	4.00	0.20	3.00	0	0.00	0.00	0.00	3.82	-	2.29	-0.50	1.20	100.97	-69.00	-48.00	-220.00	122.00	144.00	50.00	4.30	3.36	9.60	14.00	255	241.00	0.00	1	0	0	0	0	16.67	1	0	1	-
30550	0	0	0	0	1	0	50	1	1	1	0	0	4.00	0.20	3.00	0	0.00	0.00	0.00	3.94	-	4.95	-0.94	0.83	100.24	-69.00	-48.00	-220.00	122.00	144.00	50.00	4.40	3.36	9.60	14.00	255	241.00	0.00	1	0	0	0	0	16.67	1	0	1	-
31050	0	0	0	0	1	0	50	1	1	1	0	0	4.00	0.20	3.00	0	0.00	0.00	0.00	4.30	-	7.46	-0.83	0.27	97.92	-69.00	-48.00	-220.00	122.00	144.00	50.00	4.40	3.36	9.60	14.00	255	254.00	0.00	1	0	0	0	0	163.19	1	0	1	-
31550	0	0	0	0	1	0	50	1	1	1	0	0	4.00	0.20	3.00	0	0.00	0.00	0.00	480	-	9.05	-0.57	0.40	108.41	-69.00	-48.00	-220.00	122.00	144.00	50.00	4.40	3.36	9.60	14.00	255	254.00	0.00	1	0	0	0	0	163.19	1	0	1	-
32050	0	0	0	0	1	0	50	1	1	1	0	0	4.00	0.20	3.00	0	0.00	0.00	0.00	5.40	-	10.13	-1.09	1.31	97.43	-69.00	-48.00	-220.00	122.00	144.00	50.00	4.50	3.36	9.60	14.00	255	261.00	0.00	1	0	0	0	0	163.19	1	0	1	-
2550	0	0	0	0	1	0	50	1	1	1	0	0	4.00	0.20	3.00	0	0.00	0.00	0.00	6.05	-	11.31	-1.89	1.48	100.36	-69.00	-48.00	-220.00	122.00	144.00	50.00	4.50	3.36	9.60	14.00	255	261.00	0.00	1	0	0	0	0	72.33	1	0	1	-
33050	0	0	0	0	1	0	50	1	1	1	0	0	4.00	0.20	3.00	0	0.00	0.00	0.00	6.75	-	11.86	-1.93	1.17	100.00	-69.00	-48.00	-220.00	122.00	144.00	50.00	4.50	3.36	9.60	14.00	255	250.00	0.00	1	0	0	0	0	72.33	1	0	1	-
33550	0	0	0	0	1	0	50	1	1	1	0	0	4.00	0.20	3.00	0	0.00	0.00	0.00	7.05	-	8.44	-1.29	0.25	108.41	-69.00	-48.00	-220.00	122.00	144.00	50.00	4.50	3.36	9.60	14.00	255	250.00	0.00	1	0	0	0	0	72.33	1	0	1	-
34050	0	0	0	0	1	0	50	1	1	1	0	0	4.00	0.20	3.00	0	0.00	0.00	0.00	7.09	-	6.54	-1.46	0.15	97.54	-69.00	-48.00	-220.00	122.00	144.00	50.00	4.60	3.36	9.60	14.00	255	247.00	0.00	1	0	0	0	0	72.33	1	0	1	-
34550	0	0	0	0	1	0	50	1	1	1	0	0	4.00	0.20	3.00	0	0.00	0.00	0.00	7.00	-	5.28	-1.09	0.87	100.56	-69.00	-48.00	-220.00	122.00	144.00	50.00	4.60	3.36	9.60	14.00	255	247.00	0.00	1	0	0	0	0	72.33	1	0	1	-
35050	0	0	0	0	1	0	50	1	1	1	0	0	4.00	0.20	3.00	0	0.00	0.00	0.00	6.80	-	4.57	0.75	1.51	97.69	-69.00	-48.00	-220.00	122.00	144.00	50.00	4.60	3.36	9.60	14.00	255	248.00	0.00	1	0	0	0	0	72.33	1	0	1	-
35550	0	0	0	0	1	0	50	1	1	1	0	0	4.00	0.20	3.00	0	0.00	0.00	0.00	6.56	-	3.87	1.20	0.72	86.30	-69.00	-48.00	-220.00	122.00	144.00	50.00	4.60	3.36	9.60	14.00	255	248.00	0.00	1	0	0	0	0	72.33	1	0	1	-
36050	0	0	0	0	1	0	50	1	1	1	0	0	4.00	0.20	3.00	0	0.00	0.00	0.00	6.30	-	3.70	0.10	0.20	91.64	-69.00	-48.00	-220.00	122.00	144.00	50.00	4.70	3.36	9.60	14.00	255	247.00	0.00	1	0	0	0	0	72.33	1	0	1	-
6550	0	0	0	0	1	0	50	1	1	1	0	0	4.00	0.20	3.00	0	0.00	0.00	0.00	6.05	-	3.48	-0.59	1.15	91.74	-69.00	-48.00	-220.00	122.00	144.00	50.00	4.70	3.36	9.60	14.00	255	247.00	0.00	1	0	0	0	0	72.33	1	0	1	-
37050	0	0	0	0	1	0	50	1	1	1	0	0	4.00	0.20	3.00	0	0.00	0.00	0.00	5.81	-	3.09	-0.31	1.27	101.46	-69.00	-48.00	-220.00	122.00	144.00	50.00	4.70	3.36	9.60	14.00	255	244.00	0.00	1	0	0	0	0	72.33	1	0	1	-
37550	0	0	0	0	1	0	50	1	1	1	0	0	4.00	0.20	3.00	0	0.00	0.00	0.00	5.59	-	3.62	0.42	-0.05	91.74	-69.00	-48.00	-220.00	122.00	144.00	50.00	4.80	3.36	9.60	14.00	255	244.00	0.00	1	0	0	0	0	72.33	1	0	1	-
38050	0	0	0	0	1	0	50	1	1	1	0	0	4.00	0.20	3.00	0	0.00	0.00	0.00	5.43	-	4.02	0.58	0.20	91.58	-69.00	-48.00	-220.00	122.00	144.00	50.00	4.80	3.36	9.60	14.00	255	253.00	0.00	1	0	0	0	0	72.33	1	0	1	-
38550	0	0	0	0	1	0	50	1	1	1	0	0	4.00	0.20	3.00	0	0.00	0.00	0.00	5.29	-	4.04	0.43	1.17	123.33	-69.00	-48.00	-220.00	122.00	144.00	50.00	4.80	3.36	9.60	14.00	255	253.00	0.00	1	0	0	0	0	164.10	1	0	1	-
39050	0	0	0	0	1	0	50	1	1	1	0	0	4.00	0.20	3.00	0	0.00	0.00	0.00	5.17	-	3.93	-0.58	0.52	103.73	-69.00	-48.00	-220.00	122.00	144.00	50.00	4.80	3.36	9.60	14.00	255	246.00	0.00	1	0	0	0	0	164.10	1	0	1	-
39550	0	0	0	0	1	0	50	1	1	1	0	0	4.00	0.20	3.00	0	0.00	0.00	0.00	506	-	4.18	-0.27	-0.26	100.48	-69.00	-48.00	-220.00	122.00	144.00	50.00	4.90	3.36	9.60	14.00	255	246.00	0.00	1	0	0	0	0	164.10	1	0	1	-
40050	0	0	0	0	1	0	50	1	1	1	0	0	4.00	0.20	3.00	0	0.00	0.00	0.00	5.27	-	7.19	0.46	1.18	95.13	-69.00	-48.00	-220.00	122.00	144.00	50.00	4.90	3.36	9.60	14.00	255	243.00	0.00	1	0	0	0	0	164.10	1	0	1	-
40550	0	0	0	0	1	0	50	1	1	1	0	0	4.00	0.20	3.00	0	0.00	0.00	0.00	5.39	-	5.83	0.51	2.45	111.76	-69.00	-48.00	-220.00	122.00	144.00	50.00	4.90	3.36	9.60	14.00	255	243.00	0.00	1	0	0	0	0	164.10	1	0	1	-
41050	0	0	0	0	1	0	50	1	1	1	0	0	4.00	0.20	3.00	0	0.00	0.00	0.00	5.68	-	8.21	-0.26	1.17	97.62	-69.00	-48.00	-220.00	122.00	144.00	50.00	5.00	3.36	9.60	14.00	255	239.00	0.00	1	0	0	0	0	163.22	1	0	1	-
41550	0	0	0	0	1	0	50	1	1	1	0	0	4.00	0.20	3.00	0	0.00	0.00	0.00	613	-	10.24	-0.92	-0.52	100.28	-69.00	-48.00	-220.00	122.00	144.00	50.00	5.00	3.36	9.60	14.00	255	239.00	0.00	1	0	0	0	0	163.22	1	0	1	-
42050	0	0	0	0	1	0	50	1	1	1	0	0	4.00	0.20	3.00	0	0.00	0.00	0.00	6.69	-	11.29	-1.31	0.89	97.81	-69.00	-48.00	-220.00	122.00	144.00	50.00	5.00	3.36	9.60	14.00	255	237.00	0.00	1	0	0	0	0	163.22	1	0	1	-
42550	0	0	0	0	1	0	50	1	1	1	0	0	4.00	0.20	3.00	0	0.00	0.00	0.00	7.27	-	11.20	-0.67	2.24	105.44	-69.00	-48.00	-220.00	122.00	144.00	50.00	5.00	3.36	9.60	14.00	255	239.00	0.00	1	0	0	0	0	72.33	1	0	1	-
43051	0	0	0	0	1	0	50	1	1	1	0	0	4.00	0.20	3.00	0	0.00	0.00	0.00	7.78	-	11.66	-0.80	0.50	97.69	-69.00	-48.00	-220.00	122.00	144.00	50.00	5.10	3.36	9.60	14.00	255	239.00	0.00	1	0	0	0	0	72.33	1	0	1	-
43550	0	0	0	0	1	0	50	1	1	1	0	0	4.00	0.20	3.00	0	0.00	0.00	0.00	8.05	-	9.61	-1.04	0.04	100.28	-69.00	-48.00	-220.00	122.00	144.00	50.00	5.10	3.36	9.60	14.00	255	243.00	0.00	1	0	0	0	0	162.79	1	0	1	-
44050	0	0	0	0	1	0	50	1	1	1	0	0	4.00	0.20	3.00	0	0.00	0.00	0.00	8.11	-	7.85	-1.13	0.95	108.65	-69.00	-48.00	-220.00	122.00	144.00	50.00	5.10	3.36	9.60	14.00	255	243.00	0.00	1	0	0	0	0	162.79	1	0	1	-
44550	0	0	0	0	1	0	50	1	1	1	0	0	4.00	0.20	3.00	0	0.00	0.00	0.00	8.04	-	7.06	-0.08	0.90	97.77	-69.00	-48.00	-220.00	122.00	144.00	50.00	5.10	3.36	9.60	14.00	255	243.00	0.00	1	0	0	0	0	162.79	1	0	1	-
45050	0	0	0	0	1	0	50	1	1	1	0	0	4.00	0.20	3.00	0	0.00	0.00	0.00	7.96	-	7.17	1.62	1.01	88.43	-69.00	-48.00	-220.00	122.00	144.00	50.00	5.20	3.36	9.60	14.00	255	241.00	0.00	1	0	0	0	0	162.79	1	0	1	-
