Millis	m_currentPosition	m_pressedButtonDebug	m_bytesToSent	CurrentPosition	CurrentDirection	TargetPosition	MSStopped	startButton	stopButton	parkingButton	m_P	m_I	m_D	m_goalType	m_goal	m_lastError	m_errorSum	m_lastFilteredYaw		yaw	filteredYaw	pitch	roll	freq	magMin[0]	magMin[1]	magMin[2]	magMax[0]	magMax[1]	magMax[2]	m_speed	m_speed.tripMileage	m_speed.totalMileage	m_speed.waterTemp	m_lampIntensity	m_wind.apparentAngle	m_wind.apparentSpeed	m_wind.displayInKnots	m_wind.displayInMpS	m_depth.anchorAlarm	m_depth.deepAlarm	m_depth.defective	m_depth.depthBelowTransductor	m_depth.metricUnits	m_depth.shallowAlarm	m_depth.unknown	Position	
35050	-1	0	0	-1	1	-1	53	1	1	1	36.00	3.79	82.02	0	0.00	0.00	0.00	168.90		170.55	-8.70	4.91	51.40	-62.00	-21.00	-201.00	39.00	23.00	-156.00	3.70	-1.00	-1.00	16.00	-1	39.00	1.40	1	0	0	0	0	12.22	1	0	1		
36050	-1	0	0	-1	1	-1	53	1	1	1	36.00	3.79	82.02	0	0.00	0.00	0.00	169.99		169.87	-9.15	6.05	90.61	-62.00	-21.00	-201.00	39.00	23.00	-156.00	3.70	-1.00	-1.00	14.00	-1	40.00	1.50	1	0	0	0	0	12.22	1	0	1		
37050	-1	0	0	-1	1	-1	53	1	1	1	36.00	3.79	82.02	0	0.00	0.00	0.00	169.40		168.70	-8.92	6.70	51.40	-62.00	-21.00	-201.00	39.00	23.00	-156.00	3.80	-1.00	-1.00	16.00	-1	40.00	1.50	1	0	0	0	0	10.70	1	0	1		
Millis	m_currentPosition	m_pressedButtonDebug	m_bytesToSent	CurrentPosition	CurrentDirection	TargetPosition	MSStopped	startButton	stopButton	parkingButton	m_P	m_I	m_D	m_goalType	m_goal	m_lastError	m_errorSum	m_lastFilteredYaw		yaw	pitch	roll	freq	magMin[0]	magMin[1]	magMin[2]	magMax[0]	magMax[1]	magMax[2]	m_speed	m_speed.tripMileage	m_speed.totalMileage	m_speed.waterTemp	m_lampIntensity	m_wind.apparentAngle	m_wind.apparentSpeed	m_wind.displayInKnots	m_wind.displayInMpS	m_depth.anchorAlarm	m_depth.deepAlarm	m_depth.defective	m_depth.depthBelowTransductor	m_depth.metricUnits	m_depth.shallowAlarm	m_depth.unknown	Position	
1050	-1	0	0	-1	1	-1	53	1	1	1	36.00	3.79	82.02	0	0.00	0.00	0.00	66.34		99.93	54.80	-124.82	50.74	-62.00	-21.00	-200.00	39.00	22.00	-156.00	-1.00	-1.00	-1.00	16.00	-1	39.00	0.00	1	0	0	0	0	12.22	1	0	1		
2050	-1	0	0	-1	1	-1	53	1	1	1	36.00	3.79	82.02	0	0.00	0.00	0.00	142.78		177.56	35.36	-25.11	92.28	-62.00	-21.00	-200.00	39.00	24.00	-156.00	-1.00	-1.00	-1.00	14.00	-1	40.00	1.60	1	0	0	0	0	12.22	1	0	1		
3050	-1	0	0	-1	1	-1	53	1	1	1	36.00	3.79	82.02	0	0.00	0.00	0.00	172.50		176.81	-2.34	2.09	51.39	-62.00	-21.00	-200.00	39.00	24.00	-156.00	-1.00	-1.00	-1.00	16.00	-1	39.00	1.60	1	0	0	0	0	12.22	1	0	1		
4050	-1	0	0	-1	1	-1	53	1	1	1	36.00	3.79	82.02	0	0.00	0.00	0.00	173.19		171.67	-8.04	7.44	49.33	-62.00	-21.00	-200.00	39.00	24.00	-156.00	4.30	-1.00	-1.00	14.00	-1	38.00	1.60	1	0	0	0	0	12.22	1	0	1		
5050	-1	0	0	-1	1	-1	53	1	1	1	36.00	3.79	82.02	0	0.00	0.00	0.00	172.00		171.50	-9.46	7.26	51.39	-62.00	-21.00	-200.00	39.00	24.00	-156.00	4.30	-1.00	-1.00	16.00	-1	36.00	0.90	1	0	0	0	0	7.68	1	0	1		
6050	-1	0	0	-1	1	-1	53	1	1	1	36.00	3.79	82.02	0	0.00	0.00	0.00	171.52		172.61	-8.63	5.40	49.42	-62.00	-21.00	-200.00	39.00	24.00	-156.00	4.40	-1.00	-1.00	14.00	-1	37.00	0.90	1	0	0	0	0	10.73	1	0	1		
7050	-1	0	0	-1	1	-1	53	1	1	1	36.00	3.79	82.02	0	0.00	0.00	0.00	172.99		172.46	-8.75	6.11	52.07	-62.00	-21.00	-200.00	39.00	24.00	-156.00	4.40	-1.00	-1.00	16.00	-1	37.00	1.20	1	0	0	0	0	15.21	1	0	1		
8050	-1	0	0	-1	1	-1	53	1	1	1	36.00	3.79	82.02	0	0.00	0.00	0.00	173.21		174.04	-8.60	5.88	51.41	-62.00	-21.00	-200.00	39.00	24.00	-156.00	4.50	-1.00	-1.00	14.00	-1	35.00	1.20	1	0	0	0	0	15.21	1	0	1		
9050	-1	0	0	-1	1	-1	53	1	1	1	36.00	3.79	82.02	0	0.00	0.00	0.00	175.02		176.12	-9.43	7.91	48.82	-62.00	-21.00	-200.00	39.00	24.00	-156.00	4.50	-1.00	-1.00	14.00	-1	33.00	1.20	1	0	0	0	0	13.72	1	0	1		
10050	-1	0	0	-1	1	-1	53	1	1	1	36.00	3.79	82.02	0	0.00	0.00	0.00	175.23		175.20	-8.97	6.51	51.40	-62.00	-21.00	-200.00	39.00	24.00	-156.00	4.50	-1.00	-1.00	16.00	-1	32.00	1.30	1	0	0	0	0	12.19	1	0	1		
11051	-1	0	0	-1	1	-1	53	1	1	1	36.00	3.79	82.02	0	0.00	0.00	0.00	174.45		174.44	-8.29	6.58	48.82	-62.00	-21.00	-200.00	39.00	24.00	-156.00	4.60	-1.00	-1.00	16.00	-1	33.00	1.30	1	0	0	0	0	12.19	1	0	1		
12050	-1	0	0	-1	1	-1	53	1	1	1	36.00	3.79	82.02	0	0.00	0.00	0.00	175.19		175.35	-8.42	6.51	51.43	-62.00	-21.00	-200.00	39.00	24.00	-156.00	4.60	-1.00	-1.00	14.00	-1	32.00	1.30	1	0	0	0	0	10.73	1	0	1		
13069	-1	0	0	-1	1	-1	53	1	1	1	36.00	3.79	82.02	0	0.00	0.00	0.00	178.92		179.87	-8.75	6.04	23.69	-62.00	-21.00	-200.00	39.00	24.00	-156.00	4.60	-1.00	-1.00	16.00	-1	32.00	1.40	1	0	0	0	0	10.73	1	0	1		
14050	-1	0	0	-1	1	-1	53	1	1	1	36.00	3.79	82.02	0	0.00	0.00	0.00	176.90		176.13	-8.25	5.94	51.40	-62.00	-21.00	-200.00	39.00	24.00	-156.00	4.60	-1.00	-1.00	16.00	-1	31.00	1.40	1	0	0	0	0	10.73	1	0	1		
15069	-1	0	0	-1	1	-1	53	1	1	1	36.00	3.79	82.02	0	0.00	0.00	0.00	177.57		179.32	-8.48	5.81	23.43	-62.00	-21.00	-200.00	39.00	24.00	-156.00	4.60	-1.00	-1.00	16.00	-1	30.00	1.40	1	0	0	0	0	7.68	1	0	1		
16050	-1	0	0	-1	1	-1	53	1	1	1	36.00	3.79	82.02	0	0.00	0.00	0.00	178.08		178.57	-8.68	6.33	49.43	-62.00	-21.00	-200.00	39.00	24.00	-156.00	4.60	-1.00	-1.00	16.00	-1	30.00	1.40	1	0	0	0	0	7.68	1	0	1		
17056	-1	0	0	-1	1	-1	53	1	1	1	36.00	3.79	82.02	0	0.00	0.00	0.00	178.68		179.45	-8.24	6.17	147.32	-62.00	-21.00	-200.00	39.00	24.00	-156.00	4.70	-1.00	-1.00	14.00	-1	28.00	1.40	1	0	0	0	0	7.68	1	0	1		
18050	-1	0	0	-1	1	-1	53	1	1	1	36.00	3.79	82.02	0	0.00	0.00	0.00	178.06		175.51	-8.38	6.79	49.43	-62.00	-21.00	-200.00	39.00	24.00	-156.00	4.70	-1.00	-1.00	16.00	-1	29.00	1.30	1	0	0	0	0	7.68	1	0	1		
19050	-1	0	0	-1	1	-1	53	1	1	1	36.00	3.79	82.02	0	0.00	0.00	0.00	177.43		179.20	-7.54	4.56	92.73	-62.00	-21.00	-200.00	39.00	24.00	-156.00	4.70	-1.00	-1.00	14.00	-1	29.00	1.30	1	0	0	0	0	7.68	1	0	1		
20050	-1	0	0	-1	1	-1	53	1	1	1	36.00	3.79	82.02	0	0.00	0.00	0.00	177.96		179.87	-8.32	4.27	48.83	-62.00	-21.00	-200.00	39.00	24.00	-156.00	4.70	-1.00	-1.00	16.00	-1	28.00	1.30	1	0	0	0	0	9.20	1	0	1		
21050	-1	0	0	-1	1	-1	53	1	1	1	36.00	3.79	82.02	0	0.00	0.00	0.00	178.27		178.51	-8.07	5.87	51.42	-62.00	-21.00	-200.00	39.00	24.00	-156.00	4.70	-1.00	-1.00	14.00	-1	29.00	1.20	1	0	0	0	0	9.20	1	0	1		
22050	-1	0	0	-1	1	-1	53	1	1	1	36.00	3.79	82.02	0	0.00	0.00	0.00	178.65		182.64	-8.18	3.68	48.24	-62.00	-21.00	-200.00	39.00	24.00	-156.00	4.60	-1.00	-1.00	16.00	-1	29.00	1.20	1	0	0	0	0	15.24	1	0	1		
23050	-1	0	0	-1	1	-1	53	1	1	1	36.00	3.79	82.02	0	0.00	0.00	0.00	179.09		178.34	-8.17	5.44	50.70	-62.00	-21.00	-200.00	39.00	24.00	-156.00	4.60	-1.00	-1.00	14.00	-1	28.00	1.20	1	0	0	0	0	13.75	1	0	1		
24050	-1	0	0	-1	1	-1	53	1	1	1	36.00	3.79	82.02	0	0.00	0.00	0.00	179.26		182.02	-7.23	4.00	51.40	-62.00	-21.00	-200.00	39.00	24.00	-156.00	4.60	-1.00	-1.00	16.00	-1	28.00	1.00	1	0	0	0	0	13.75	1	0	1		
24450	-1	0	0	-1	1	-1	53	1	1	1	36.00	3.79	82.02	0	0.00	0.00	0.00	179.26		186.43	-6.92	2.83	49.44	-62.00	-21.00	-200.00	39.00	24.00	-156.00	4.60	-1.00	-1.00	16.00	-1	28.00	1.00	1	0	0	0	0	12.22	1	0	1		
24500	-1	0	0	-1	1	-1	53	1	1	1	36.00	3.79	82.02	0	0.00	0.00	0.00	179.26		186.82	-7.00	2.85	78.08	-62.00	-21.00	-200.00	39.00	24.00	-156.00	4.60	-1.00	-1.00	16.00	-1	28.00	1.00	1	0	0	0	0	12.22	1	0	1		
24553	-1	0	0	-1	1	-1	53	1	1	1	36.00	3.79	82.02	0	0.00	0.00	0.00	180.84		186.93	-7.00	2.85	144.76	-62.00	-21.00	-200.00	39.00	24.00	-156.00	4.60	-1.00	-1.00	16.00	-1	28.00	1.00	1	0	0	0	0	12.22	1	0	1		
24600	-1	0	0	-1	1	-1	53	1	1	1	36.00	3.79	82.02	0	0.00	0.00	0.00	180.84		186.99	-7.06	2.86	147.06	-62.00	-21.00	-200.00	39.00	24.00	-156.00	4.60	-1.00	-1.00	16.00	-1	28.00	1.00	1	0	0	0	0	12.22	1	0	1		
24650	-1	0	0	-1	1	-1	53	1	1	1	36.00	3.79	82.02	0	0.00	0.00	0.00	180.84		187.07	-7.13	2.89	67.68	-62.00	-21.00	-200.00	39.00	24.00	-156.00	4.60	-1.00	-1.00	16.00	-1	28.00	1.00	1	0	0	0	0	12.22	1	0	1		
24700	-1	0	0	-1	1	-1	53	1	1	1	36.00	3.79	82.02	0	0.00	0.00	0.00	180.84		187.13	-7.23	2.89	81.97	-62.00	-21.00	-200.00	39.00	24.00	-156.00	4.60	-1.00	-1.00	16.00	-1	28.00	1.00	1	0	0	0	0	12.22	1	0	1		
24754	-1	0	0	-1	1	-1	53	1	1	1	36.00	3.79	82.02	0	0.00	0.00	0.00	180.84		186.65	-7.41	3.35	34.41	-62.00	-21.00	-200.00	39.00	24.00	-156.00	4.60	-1.00	-1.00	16.00	-1	28.00	1.00	1	0	0	0	0	12.22	1	0	1		
24800	-1	0	0	-1	1	-1	53	1	1	1	36.00	3.79	82.02	0	0.00	0.00	0.00	180.84		186.00	-7.47	3.73	146.54	-62.00	-21.00	-200.00	39.00	24.00	-156.00	4.60	-1.00	-1.00	16.00	-1	28.00	1.00	1	0	0	0	0	12.22	1	0	1		
24850	-1	0	0	-1	1	-1	53	1	1	1	36.00	3.79	82.02	0	0.00	0.00	0.00	180.84		185.13	-7.58	4.24	66.68	-62.00	-21.00	-200.00	39.00	24.00	-156.00	4.60	-1.00	-1.00	16.00	-1	28.00	1.00	1	0	0	0	0	12.22	1	0	1		
24900	-1	0	0	-1	1	-1	53	1	1	1	36.00	3.79	82.02	0	0.00	0.00	0.00	180.84		184.52	-7.58	4.59	83.11	-62.00	-21.00	-200.00	39.00	24.00	-156.00	4.60	-1.00	-1.00	16.00	-1	28.00	1.00	1	0	0	0	0	12.22	1	0	1		
24950	-1	0	0	-1	1	-1	53	1	1	1	36.00	3.79	82.02	0	0.00	0.00	0.00	180.84		183.66	-7.68	5.03	57.80	-62.00	-21.00	-200.00	39.00	24.00	-156.00	4.60	-1.00	-1.00	16.00	-1	0.00	1.00	1	0	0	0	0	12.22	1	0	1		
25004	-1	0	0	-1	1	-1	53	1	1	1	36.00	3.79	82.02	0	0.00	0.00	0.00	182.04		183.87	-7.63	4.73	144.43	-62.00	-21.00	-200.00	39.00	24.00	-156.00	4.60	-1.00	-1.00	16.00	-1	29.00	1.00	1	0	0	0	0	12.22	1	0	1		
25050	-1	0	0	-1	1	-1	53	1	1	1	36.00	3.79	82.02	0	0.00	0.00	0.00	182.04		184.01	-7.66	4.63	82.24	-62.00	-21.00	-200.00	39.00	24.00	-156.00	4.60	-1.00	-1.00	16.00	-1	29.00	1.00	1	0	0	0	0	12.22	1	0	1		
25100	-1	0	0	-1	1	-1	53	1	1	1	36.00	3.79	82.02	0	0.00	0.00	0.00	182.04		184.11	-7.67	4.57	77.42	-62.00	-21.00	-200.00	39.00	24.00	-156.00	4.60	-1.00	-1.00	16.00	-1	29.00	1.00	1	0	0	0	0	12.22	1	0	1		
25150	-1	0	0	-1	1	-1	53	1	1	1	36.00	3.79	82.02	0	0.00	0.00	0.00	182.04		184.26	-7.71	4.55	65.02	-62.00	-21.00	-200.00	39.00	24.00	-156.00	4.60	-1.00	-1.00	16.00	-1	29.00	1.00	1	0	0	0	0	12.22	1	0	1		
25208	-1	0	0	-1	1	-1	53	1	1	1	36.00	3.79	82.02	0	0.00	0.00	0.00	182.04		184.54	-7.71	4.41	29.27	-62.00	-21.00	-200.00	39.00	24.00	-156.00	4.60	-1.00	-1.00	16.00	-1	29.00	1.00	1	0	0	0	0	12.22	1	0	1		
25250	-1	0	0	-1	1	-1	53	1	1	1	36.00	3.79	82.02	0	0.00	0.00	0.00	182.04		184.78	-7.70	4.31	146.97	-62.00	-21.00	-200.00	39.00	24.00	-156.00	4.60	-1.00	-1.00	16.00	-1	29.00	1.00	1	0	0	0	0	12.22	1	0	1		
25300	-1	0	0	-1	1	-1	53	1	1	1	36.00	3.79	82.02	0	0.00	0.00	0.00	182.04		185.01	-7.66	4.21	84.26	-62.00	-21.00	-200.00	39.00	24.00	-156.00	4.60	-1.00	-1.00	16.00	-1	29.00	1.00	1	0	0	0	0	12.22	1	0	1		
25350	-1	0	0	-1	1	-1	53	1	1	1	36.00	3.79	82.02	0	0.00	0.00	0.00	182.04		185.34	-7.63	4.03	65.07	-62.00	-21.00	-200.00	39.00	24.00	-156.00	4.60	-1.00	-1.00	16.00	-1	29.00	1.00	1	0	0	0	0	12.22	1	0	1		
25400	-1	0	0	-1	1	-1	53	1	1	1	36.00	3.79	82.02	0	0.00	0.00	0.00	182.04		185.54	-7.52	4.01	74.96	-62.00	-21.00	-200.00	39.00	24.00	-156.00	4.60	-1.00	-1.00	16.00	-1	29.00	1.00	1	0	0	0	0	12.22	1	0	1		
25453	-1	0	0	-1	1	-1	53	1	1	1	36.00	3.79	82.02	0	0.00	0.00	0.00	182.04		185.19	-7.60	4.32	144.93	-62.00	-21.00	-200.00	39.00	24.00	-156.00	4.60	-1.00	-1.00	16.00	-1	29.00	1.00	1	0	0	0	0	12.22	1	0	1		
25500	-1	0	0	-1	1	-1	53	1	1	1	36.00	3.79	82.02	0	0.00	0.00	0.00	182.76		185.01	-7.56	4.42	146.97	-62.00	-21.00	-200.00	39.00	24.00	-156.00	4.60	-1.00	-1.00	16.00	-1	29.00	1.00	1	0	0	0	0	12.22	1	0	1		
25550	-1	0	0	-1	1	-1	53	1	1	1	36.00	3.79	82.02	0	0.00	0.00	0.00	182.76		184.77	-7.58	4.60	66.58	-62.00	-21.00	-200.00	39.00	24.00	-156.00	4.60	-1.00	-1.00	16.00	-1	29.00	1.00	1	0	0	0	0	12.22	1	0	1		
25600	-1	0	0	-1	1	-1	53	1	1	1	36.00	3.79	82.02	0	0.00	0.00	0.00	182.76		184.62	-7.48	4.59	83.89	-62.00	-21.00	-200.00	39.00	24.00	-156.00	4.60	-1.00	-1.00	16.00	-1	29.00	1.00	1	0	0	0	0	12.22	1	0	1		
25653	-1	0	0	-1	1	-1	53	1	1	1	36.00	3.79	82.02	0	0.00	0.00	0.00	182.76		184.07	-7.42	4.94	34.35	-62.00	-21.00	-200.00	39.00	24.00	-156.00	4.60	-1.00	-1.00	16.00	-1	29.00	1.00	1	0	0	0	0	12.22	1	0	1		
25700	-1	0	0	-1	1	-1	53	1	1	1	36.00	3.79	82.02	0	0.00	0.00	0.00	182.76		183.59	-7.45	5.13	146.97	-62.00	-21.00	-200.00	39.00	24.00	-156.00	4.60	-1.00	-1.00	16.00	-1	29.00	1.00	1	0	0	0	0	12.22	1	0	1		
25750	-1	0	0	-1	1	-1	53	1	1	1	36.00	3.79	82.02	0	0.00	0.00	0.00	182.76		182.87	-7.46	5.49	57.83	-62.00	-21.00	-200.00	39.00	24.00	-156.00	4.60	-1.00	-1.00	16.00	-1	29.00	0.90	1	0	0	0	0	12.22	1	0	1		
25800	-1	0	0	-1	1	-1	53	1	1	1	36.00	3.79	82.02	0	0.00	0.00	0.00	182.76		182.40	-7.46	5.72	83.78	-62.00	-21.00	-200.00	39.00	24.00	-156.00	4.60	-1.00	-1.00	16.00	-1	29.00	0.90	1	0	0	0	0	12.22	1	0	1		
25850	-1	0	0	-1	1	-1	53	1	1	1	36.00	3.79	82.02	0	0.00	0.00	0.00	182.76		181.75	-7.42	5.91	65.17	-62.00	-21.00	-200.00	39.00	24.00	-156.00	4.60	-1.00	-1.00	16.00	-1	29.00	0.90	1	0	0	0	0	12.22	1	0	1		
25909	-1	0	0	-1	1	-1	53	1	1	1	36.00	3.79	82.02	0	0.00	0.00	0.00	182.76		181.79	-7.41	5.61	29.50	-62.00	-21.00	-200.00	39.00	24.00	-156.00	4.60	-1.00	-1.00	16.00	-1	29.00	0.90	1	0	0	0	0	12.22	1	0	1		
25950	-1	0	0	-1	1	-1	53	1	1	1	36.00	3.79	82.02	0	0.00	0.00	0.00	182.76		182.13	-7.45	5.28	146.37	-62.00	-21.00	-200.00	39.00	24.00	-156.00	4.60	-1.00	-1.00	16.00	-1	29.00	0.90	1	0	0	0	0	12.22	1	0	1		
26000	-1	0	0	-1	1	-1	53	1	1	1	36.00	3.79	82.02	0	0.00	0.00	0.00	182.83		182.46	-7.51	4.99	77.52	-62.00	-21.00	-200.00	39.00	24.00	-156.00	4.60	-1.00	-1.00	16.00	-1	29.00	0.90	1	0	0	0	0	12.22	1	0	1		
26050	-1	0	0	-1	1	-1	53	1	1	1	36.00	3.79	82.02	0	0.00	0.00	0.00	182.83		182.91	-7.54	4.64	67.57	-62.00	-21.00	-200.00	39.00	24.00	-156.00	4.60	-1.00	-1.00	16.00	-1	29.00	0.90	1	0	0	0	0	12.22	1	0	1		
26100	-1	0	0	-1	1	-1	53	1	1	1	36.00	3.79	82.02	0	0.00	0.00	0.00	182.83		183.18	-7.60	4.53	85.91	-62.00	-21.00	-200.00	39.00	24.00	-156.00	4.60	-1.00	-1.00	16.00	-1	28.00	0.90	1	0	0	0	0	12.22	1	0	1		
26153	-1	0	0	-1	1	-1	53	1	1	1	36.00	3.79	82.02	0	0.00	0.00	0.00	182.83		183.42	-7.76	4.37	146.11	-62.00	-21.00	-200.00	39.00	24.00	-156.00	4.60	-1.00	-1.00	16.00	-1	28.00	0.90	1	0	0	0	0	12.22	1	0	1		
26200	-1	0	0	-1	1	-1	53	1	1	1	36.00	3.79	82.02	0	0.00	0.00	0.00	182.83		183.53	-7.85	4.39	147.06	-62.00	-21.00	-200.00	39.00	24.00	-156.00	4.60	-1.00	-1.00	16.00	-1	28.00	0.90	1	0	0	0	0	12.22	1	0	1		
26250	-1	0	0	-1	1	-1	53	1	1	1	36.00	3.79	82.02	0	0.00	0.00	0.00	182.83		183.68	-7.92	4.49	57.52	-62.00	-21.00	-200.00	39.00	24.00	-156.00	4.60	-1.00	-1.00	16.00	-1	28.00	0.90	1	0	0	0	0	12.22	1	0	1		
26300	-1	0	0	-1	1	-1	53	1	1	1	36.00	3.79	82.02	0	0.00	0.00	0.00	182.83		183.78	-7.97	4.56	77.11	-62.00	-21.00	-200.00	39.00	24.00	-156.00	4.60	-1.00	-1.00	16.00	-1	28.00	0.90	1	0	0	0	0	12.22	1	0	1		
26369	-1	0	0	-1	1	-1	53	1	1	1	36.00	3.79	82.02	0	0.00	0.00	0.00	182.83		183.99	-7.98	4.58	26.79	-62.00	-21.00	-200.00	39.00	24.00	-156.00	4.60	-1.00	-1.00	16.00	-1	28.00	0.90	1	0	0	0	0	12.22	1	0	1		
26400	-1	0	0	-1	1	-1	53	1	1	1	36.00	3.79	82.02	0	0.00	0.00	0.00	182.83		184.06	-8.04	4.58	141.08	-62.00	-21.00	-200.00	39.00	24.00	-156.00	4.60	-1.00	-1.00	16.00	-1	28.00	0.90	1	0	0	0	0	12.22	1	0	1		
26450	-1	0	0	-1	1	-1	53	1	1	1	36.00	3.79	82.02	0	0.00	0.00	0.00	182.83		184.17	-8.11	4.62	67.60	-62.00	-21.00	-200.00	39.00	24.00	-156.00	4.60	-1.00	-1.00	16.00	-1	28.00	0.90	1	0	0	0	0	12.22	1	0	1		
26500	-1	0	0	-1	1	-1	53	1	1	1	36.00	3.79	82.02	0	0.00	0.00	0.00	183.06		184.25	-8.18	4.68	84.26	-62.00	-21.00	-200.00	39.00	24.00	-156.00	4.60	-1.00	-1.00	16.00	-1	28.00	0.90	1	0	0	0	0	12.22	1	0	1		
26550	-1	0	0	-1	1	-1	53	1	1	1	36.00	3.79	82.02	0	0.00	0.00	0.00	183.06		184.38	-8.14	4.64	66.23	-62.00	-21.00	-200.00	39.00	24.00	-156.00	4.60	-1.00	-1.00	16.00	-1	28.00	0.90	1	0	0	0	0	12.22	1	0	1		
26603	-1	0	0	-1	1	-1	53	1	1	1	36.00	3.79	82.02	0	0.00	0.00	0.00	183.06		184.42	-8.13	4.64	144.93	-62.00	-21.00	-200.00	39.00	24.00	-156.00	4.60	-1.00	-1.00	16.00	-1	28.00	0.90	1	0	0	0	0	12.22	1	0	1		
26650	-1	0	0	-1	1	-1	53	1	1	1	36.00	3.79	82.02	0	0.00	0.00	0.00	183.06		184.45	-8.09	4.64	84.12	-62.00	-21.00	-200.00	39.00	24.00	-156.00	4.60	-1.00	-1.00	16.00	-1	28.00	0.90	1	0	0	0	0	12.22	1	0	1		
26706	-1	0	0	-1	1	-1	53	1	1	1	36.00	3.79	82.02	0	0.00	0.00	0.00	183.06		184.47	-8.01	4.59	49.31	-62.00	-21.00	-200.00	39.00	24.00	-156.00	4.60	-1.00	-1.00	16.00	-1	28.00	0.90	1	0	0	0	0	13.75	1	0	1		
26750	-1	0	0	-1	1	-1	53	1	1	1	36.00	3.79	82.02	0	0.00	0.00	0.00	183.06		184.48	-7.98	4.63	64.73	-62.00	-21.00	-200.00	39.00	24.00	-156.00	4.60	-1.00	-1.00	16.00	-1	28.00	0.90	1	0	0	0	0	13.75	1	0	1		
26809	-1	0	0	-1	1	-1	53	1	1	1	36.00	3.79	82.02	0	0.00	0.00	0.00	183.06		184.38	-7.92	4.68	29.40	-62.00	-21.00	-200.00	39.00	24.00	-156.00	4.60	-1.00	-1.00	16.00	-1	28.00	0.90	1	0	0	0	0	13.75	1	0	1		
26850	-1	0	0	-1	1	-1	53	1	1	1	36.00	3.79	82.02	0	0.00	0.00	0.00	183.06		184.27	-7.91	4.75	146.89	-62.00	-21.00	-200.00	39.00	24.00	-156.00	4.60	-1.00	-1.00	16.00	-1	28.00	0.90	1	0	0	0	0	13.75	1	0	1		
26900	-1	0	0	-1	1	-1	53	1	1	1	36.00	3.79	82.02	0	0.00	0.00	0.00	183.06		184.16	-7.91	4.84	84.20	-62.00	-21.00	-200.00	39.00	24.00	-156.00	4.60	-1.00	-1.00	16.00	-1	28.00	0.90	1	0	0	0	0	13.75	1	0	1		
26950	-1	0	0	-1	1	-1	53	1	1	1	36.00	3.79	82.02	0	0.00	0.00	0.00	183.06		184.01	-7.88	4.89	66.17	-62.00	-21.00	-200.00	39.00	24.00	-156.00	4.60	-1.00	-1.00	16.00	-1	28.00	0.90	1	0	0	0	0	13.75	1	0	1		
27000	-1	0	0	-1	1	-1	53	1	1	1	36.00	3.79	82.02	0	0.00	0.00	0.00	183.39		183.92	-7.84	4.88	83.17	-62.00	-21.00	-200.00	39.00	24.00	-156.00	4.60	-1.00	-1.00	16.00	-1	28.00	0.90	1	0	0	0	0	13.75	1	0	1		
27054	-1	0	0	-1	1	-1	53	1	1	1	36.00	3.79	82.02	0	0.00	0.00	0.00	183.39		183.46	-7.68	4.93	145.35	-62.00	-21.00	-200.00	39.00	24.00	-156.00	4.60	-1.00	-1.00	16.00	-1	29.00	0.90	1	0	0	0	0	13.75	1	0	1		
27100	-1	0	0	-1	1	-1	53	1	1	1	36.00	3.79	82.02	0	0.00	0.00	0.00	183.39		183.20	-7.64	4.98	147.15	-62.00	-21.00	-200.00	39.00	24.00	-156.00	4.60	-1.00	-1.00	16.00	-1	29.00	0.90	1	0	0	0	0	13.75	1	0	1		
27150	-1	0	0	-1	1	-1	53	1	1	1	36.00	3.79	82.02	0	0.00	0.00	0.00	183.39		182.86	-7.64	5.03	66.61	-62.00	-21.00	-200.00	39.00	24.00	-156.00	4.60	-1.00	-1.00	16.00	-1	29.00	0.90	1	0	0	0	0	13.75	1	0	1		
27200	-1	0	0	-1	1	-1	53	1	1	1	36.00	3.79	82.02	0	0.00	0.00	0.00	183.39		182.63	-7.63	5.07	81.41	-62.00	-21.00	-200.00	39.00	24.00	-156.00	4.60	-1.00	-1.00	16.00	-1	29.00	0.90	1	0	0	0	0	13.75	1	0	1		
27253	-1	0	0	-1	1	-1	53	1	1	1	36.00	3.79	82.02	0	0.00	0.00	0.00	183.39		182.51	-7.58	4.88	34.35	-62.00	-21.00	-200.00	39.00	24.00	-156.00	4.60	-1.00	-1.00	16.00	-1	29.00	0.90	1	0	0	0	0	13.75	1	0	1		
27300	-1	0	0	-1	1	-1	53	1	1	1	36.00	3.79	82.02	0	0.00	0.00	0.00	183.39		182.61	-7.55	4.68	146.71	-62.00	-21.00	-200.00	39.00	24.00	-156.00	4.60	-1.00	-1.00	16.00	-1	29.00	0.90	1	0	0	0	0	13.75	1	0	1		
27350	-1	0	0	-1	1	-1	53	1	1	1	36.00	3.79	82.02	0	0.00	0.00	0.00	183.39		182.74	-7.49	4.45	67.46	-62.00	-21.00	-200.00	39.00	24.00	-156.00	4.60	-1.00	-1.00	16.00	-1	29.00	0.90	1	0	0	0	0	13.75	1	0	1		
27400	-1	0	0	-1	1	-1	53	1	1	1	36.00	3.79	82.02	0	0.00	0.00	0.00	183.39		182.81	-7.51	4.38	78.79	-62.00	-21.00	-200.00	39.00	24.00	-156.00	4.60	-1.00	-1.00	16.00	-1	29.00	0.90	1	0	0	0	0	13.75	1	0	1		
27450	-1	0	0	-1	1	-1	53	1	1	1	36.00	3.79	82.02	0	0.00	0.00	0.00	183.39		182.90	-7.52	4.31	66.93	-62.00	-21.00	-200.00	39.00	24.00	-156.00	4.60	-1.00	-1.00	16.00	-1	29.00	0.90	1	0	0	0	0	13.75	1	0	1		
27503	-1	0	0	-1	1	-1	53	1	1	1	36.00	3.79	82.02	0	0.00	0.00	0.00	183.30		184.65	-7.30	3.23	146.20	-62.00	-21.00	-200.00	39.00	24.00	-156.00	4.60	-1.00	-1.00	16.00	-1	29.00	0.90	1	0	0	0	0	13.75	1	0	1		
27550	-1	0	0	-1	1	-1	53	1	1	1	36.00	3.79	82.02	0	0.00	0.00	0.00	183.30		185.82	-7.19	2.72	84.32	-62.00	-21.00	-200.00	39.00	24.00	-156.00	4.60	-1.00	-1.00	16.00	-1	29.00	0.90	1	0	0	0	0	13.75	1	0	1		
27600	-1	0	0	-1	1	-1	53	1	1	1	36.00	3.79	82.02	0	0.00	0.00	0.00	183.30		186.80	-7.11	2.37	82.70	-62.00	-21.00	-200.00	39.00	24.00	-156.00	4.60	-1.00	-1.00	16.00	-1	29.00	0.90	1	0	0	0	0	13.75	1	0	1		
27650	-1	0	0	-1	1	-1	53	1	1	1	36.00	3.79	82.02	0	0.00	0.00	0.00	183.30		188.15	-7.08	1.93	65.17	-62.00	-21.00	-200.00	39.00	24.00	-156.00	4.60	-1.00	-1.00	16.00	-1	29.00	0.90	1	0	0	0	0	13.75	1	0	1		
27709	-1	0	0	-1	1	-1	53	1	1	1	36.00	3.79	82.02	0	0.00	0.00	0.00	183.30		188.77	-7.19	2.05	28.83	-62.00	-21.00	-200.00	39.00	24.00	-156.00	4.60	-1.00	-1.00	16.00	-1	29.00	0.90	1	0	0	0	0	13.75	1	0	1		
27750	-1	0	0	-1	1	-1	53	1	1	1	36.00	3.79	82.02	0	0.00	0.00	0.00	183.30		188.86	-7.20	2.24	148.19	-62.00	-21.00	-200.00	39.00	24.00	-156.00	4.60	-1.00	-1.00	16.00	-1	29.00	0.90	1	0	0	0	0	13.75	1	0	1		
27800	-1	0	0	-1	1	-1	53	1	1	1	36.00	3.79	82.02	0	0.00	0.00	0.00	183.30		188.96	-7.28	2.44	84.57	-62.00	-21.00	-200.00	39.00	24.00	-156.00	4.60	-1.00	-1.00	16.00	-1	29.00	0.90	1	0	0	0	0	13.75	1	0	1		
27850	-1	0	0	-1	1	-1	53	1	1	1	36.00	3.79	82.02	0	0.00	0.00	0.00	183.30		189.11	-7.34	2.63	58.87	-62.00	-21.00	-200.00	39.00	24.00	-156.00	4.60	-1.00	-1.00	16.00	-1	29.00	0.90	1	0	0	0	0	13.75	1	0	1		
27900	-1	0	0	-1	1	-1	53	1	1	1	36.00	3.79	82.02	0	0.00	0.00	0.00	183.30		189.21	-7.41	2.88	85.76	-62.00	-21.00	-200.00	39.00	24.00	-156.00	4.60	-1.00	-1.00	16.00	-1	29.00	0.90	1	0	0	0	0	13.75	1	0	1		
27954	-1	0	0	-1	1	-1	53	1	1	1	36.00	3.79	82.02	0	0.00	0.00	0.00	183.30		189.41	-7.35	2.97	34.44	-62.00	-21.00	-200.00	39.00	24.00	-156.00	4.60	-1.00	-1.00	16.00	-1	29.00	0.90	1	0	0	0	0	12.22	1	0	1		
28000	-1	0	0	-1	1	-1	53	1	1	1	36.00	3.79	82.02	0	0.00	0.00	0.00	184.68		189.51	-7.35	3.11	147.32	-62.00	-21.00	-200.00	39.00	24.00	-156.00	4.60	-1.00	-1.00	16.00	-1	29.00	0.90	1	0	0	0	0	12.22	1	0	1		
28050	-1	0	0	-1	1	-1	53	1	1	1	36.00	3.79	82.02	0	0.00	0.00	0.00	184.68		189.65	-7.33	3.26	66.67	-62.00	-21.00	-200.00	39.00	24.00	-156.00	4.60	-1.00	-1.00	16.00	-1	28.00	0.90	1	0	0	0	0	12.22	1	0	1		
28100	-1	0	0	-1	1	-1	53	1	1	1	36.00	3.79	82.02	0	0.00	0.00	0.00	184.68		189.76	-7.33	3.35	83.61	-62.00	-21.00	-200.00	39.00	24.00	-156.00	4.60	-1.00	-1.00	16.00	-1	28.00	0.90	1	0	0	0	0	12.22	1	0	1		
28169	-1	0	0	-1	1	-1	53	1	1	1	36.00	3.79	82.02	0	0.00	0.00	0.00	184.68		189.61	-7.49	3.75	26.94	-62.00	-21.00	-200.00	39.00	24.00	-156.00	4.60	-1.00	-1.00	16.00	-1	28.00	0.90	1	0	0	0	0	12.22	1	0	1		
28200	-1	0	0	-1	1	-1	53	1	1	1	36.00	3.79	82.02	0	0.00	0.00	0.00	184.68		189.39	-7.49	3.99	141.24	-62.00	-21.00	-200.00	39.00	24.00	-156.00	4.60	-1.00	-1.00	16.00	-1	28.00	0.90	1	0	0	0	0	12.22	1	0	1		
28250	-1	0	0	-1	1	-1	53	1	1	1	36.00	3.79	82.02	0	0.00	0.00	0.00	184.68		189.10	-7.53	4.26	66.51	-62.00	-21.00	-200.00	39.00	24.00	-156.00	4.60	-1.00	-1.00	16.00	-1	28.00	0.90	1	0	0	0	0	12.22	1	0	1		
28300	-1	0	0	-1	1	-1	53	1	1	1	36.00	3.79	82.02	0	0.00	0.00	0.00	184.68		188.86	-7.54	4.55	75.92	-62.00	-21.00	-200.00	39.00	24.00	-156.00	4.60	-1.00	-1.00	16.00	-1	28.00	0.90	1	0	0	0	0	12.22	1	0	1		
28350	-1	0	0	-1	1	-1	53	1	1	1	36.00	3.79	82.02	0	0.00	0.00	0.00	184.68		188.54	-7.53	4.88	57.39	-62.00	-21.00	-200.00	39.00	24.00	-156.00	4.60	-1.00	-1.00	16.00	-1	28.00	0.90	1	0	0	0	0	12.22	1	0	1		
28408	-1	0	0	-1	1	-1	53	1	1	1	36.00	3.79	82.02	0	0.00	0.00	0.00	184.68		189.64	-7.04	4.06	29.72	-62.00	-21.00	-200.00	39.00	24.00	-156.00	4.60	-1.00	-1.00	16.00	-1	28.00	0.90	1	0	0	0	0	12.22	1	0	1		
28450	-1	0	0	-1	1	-1	53	1	1	1	36.00	3.79	82.02	0	0.00	0.00	0.00	184.68		190.96	-6.67	3.27	146.97	-62.00	-21.00	-200.00	39.00	24.00	-156.00	4.60	-1.00	-1.00	16.00	-1	28.00	0.90	1	0	0	0	0	12.22	1	0	1		
28500	-1	0	0	-1	1	-1	53	1	1	1	36.00	3.79	82.02	0	0.00	0.00	0.00	186.00		192.21	-6.33	2.67	84.52	-62.00	-21.00	-200.00	39.00	24.00	-156.00	4.60	-1.00	-1.00	16.00	-1	28.00	0.90	1	0	0	0	0	12.22	1	0	1		
28550	-1	0	0	-1	1	-1	53	1	1	1	36.00	3.79	82.02	0	0.00	0.00	0.00	186.00		193.94	-6.03	1.93	65.98	-62.00	-21.00	-200.00	39.00	24.00	-156.00	4.60	-1.00	-1.00	16.00	-1	28.00	0.80	1	0	0	0	0	12.22	1	0	1		
28600	-1	0	0	-1	1	-1	53	1	1	1	36.00	3.79	82.02	0	0.00	0.00	0.00	186.00		194.99	-5.77	1.48	76.99	-62.00	-21.00	-200.00	39.00	24.00	-156.00	4.60	-1.00	-1.00	16.00	-1	28.00	1.70	1	0	0	0	0	12.22	1	0	1		
28653	-1	0	0	-1	1	-1	53	1	1	1	36.00	3.79	82.02	0	0.00	0.00	0.00	186.00		195.95	-5.84	1.70	145.60	-62.00	-21.00	-200.00	39.00	24.00	-156.00	4.60	-1.00	-1.00	16.00	-1	28.00	1.70	1	0	0	0	0	12.22	1	0	1		
28700	-1	0	0	-1	1	-1	53	1	1	1	36.00	3.79	82.02	0	0.00	0.00	0.00	186.00		196.48	-5.86	1.80	147.84	-62.00	-21.00	-200.00	39.00	24.00	-156.00	4.60	-1.00	-1.00	16.00	-1	28.00	1.70	1	0	0	0	0	12.22	1	0	1		
28750	-1	0	0	-1	1	-1	53	1	1	1	36.00	3.79	82.02	0	0.00	0.00	0.00	186.00		197.18	-5.99	1.96	66.63	-62.00	-21.00	-200.00	39.00	24.00	-156.00	4.60	-1.00	-1.00	16.00	-1	28.00	1.70	1	0	0	0	0	12.22	1	0	1		
28800	-1	0	0	-1	1	-1	53	1	1	1	36.00	3.79	82.02	0	0.00	0.00	0.00	186.00		197.66	-6.11	2.02	83.78	-62.00	-21.00	-200.00	39.00	24.00	-156.00	4.60	-1.00	-1.00	16.00	-1	28.00	1.70	1	0	0	0	0	12.22	1	0	1		
28853	-1	0	0	-1	1	-1	53	1	1	1	36.00	3.79	82.02	0	0.00	0.00	0.00	186.00		197.89	-6.27	2.42	34.37	-62.00	-21.00	-200.00	39.00	24.00	-156.00	4.60	-1.00	-1.00	16.00	-1	28.00	1.70	1	0	0	0	0	12.22	1	0	1		
28900	-1	0	0	-1	1	-1	53	1	1	1	36.00	3.79	82.02	0	0.00	0.00	0.00	186.00		197.64	-6.47	2.84	147.75	-62.00	-21.00	-200.00	39.00	24.00	-156.00	4.60	-1.00	-1.00	16.00	-1	28.00	1.70	1	0	0	0	0	12.22	1	0	1		
28950	-1	0	0	-1	1	-1	53	1	1	1	36.00	3.79	82.02	0	0.00	0.00	0.00	186.00		197.33	-6.79	3.38	66.49	-62.00	-21.00	-200.00	39.00	24.00	-156.00	4.60	-1.00	-1.00	16.00	-1	28.00	1.70	1	0	0	0	0	12.22	1	0	1		
29000	-1	0	0	-1	1	-1	53	1	1	1	36.00	3.79	82.02	0	0.00	0.00	0.00	186.00		197.12	-7.01	3.66	82.02	-62.00	-21.00	-200.00	39.00	24.00	-156.00	4.60	-1.00	-1.00	16.00	-1	27.00	1.70	1	0	0	0	0	12.22	1	0	1		
29069	-1	0	0	-1	1	-1	53	1	1	1	36.00	3.79	82.02	0	0.00	0.00	0.00	189.05		196.51	-7.36	4.23	26.94	-62.00	-21.00	-200.00	39.00	24.00	-156.00	4.60	-1.00	-1.00	16.00	-1	27.00	1.70	1	0	0	0	0	12.22	1	0	1		
29101	-1	0	0	-1	1	-1	53	1	1	1	36.00	3.79	82.02	0	0.00	0.00	0.00	189.05		196.19	-7.47	4.46	141.32	-62.00	-21.00	-200.00	39.00	24.00	-156.00	4.60	-1.00	-1.00	16.00	-1	27.00	1.70	1	0	0	0	0	12.22	1	0	1		
29150	-1	0	0	-1	1	-1	53	1	1	1	36.00	3.79	82.02	0	0.00	0.00	0.00	189.05		195.73	-7.63	4.76	65.31	-62.00	-21.00	-200.00	39.00	24.00	-156.00	4.60	-1.00	-1.00	16.00	-1	27.00	1.70	1	0	0	0	0	12.22	1	0	1		
29200	-1	0	0	-1	1	-1	53	1	1	1	36.00	3.79	82.02	0	0.00	0.00	0.00	189.05		195.37	-7.73	4.97	77.45	-62.00	-21.00	-200.00	39.00	24.00	-156.00	4.60	-1.00	-1.00	16.00	-1	27.00	1.70	1	0	0	0	0	12.22	1	0	1		
29250	-1	0	0	-1	1	-1	53	1	1	1	36.00	3.79	82.02	0	0.00	0.00	0.00	189.05		194.85	-7.86	5.30	67.39	-62.00	-21.00	-200.00	39.00	24.00	-156.00	4.60	-1.00	-1.00	16.00	-1	27.00	1.70	1	0	0	0	0	12.22	1	0	1		
29303	-1	0	0	-1	1	-1	53	1	1	1	36.00	3.79	82.02	0	0.00	0.00	0.00	189.05		195.33	-7.90	4.94	143.84	-62.00	-21.00	-200.00	39.00	24.00	-156.00	4.60	-1.00	-1.00	16.00	-1	27.00	1.70	1	0	0	0	0	12.22	1	0	1		
29350	-1	0	0	-1	1	-1	53	1	1	1	36.00	3.79	82.02	0	0.00	0.00	0.00	189.05		195.66	-7.77	4.71	84.29	-62.00	-21.00	-200.00	39.00	24.00	-156.00	4.60	-1.00	-1.00	16.00	-1	27.00	1.70	1	0	0	0	0	12.22	1	0	1		
29400	-1	0	0	-1	1	-1	53	1	1	1	36.00	3.79	82.02	0	0.00	0.00	0.00	189.05		195.94	-7.71	4.49	84.40	-62.00	-21.00	-200.00	39.00	24.00	-156.00	4.60	-1.00	-1.00	16.00	-1	27.00	1.70	1	0	0	0	0	12.22	1	0	1		
29450	-1	0	0	-1	1	-1	53	1	1	1	36.00	3.79	82.02	0	0.00	0.00	0.00	189.05		196.31	-7.58	4.23	64.95	-62.00	-21.00	-200.00	39.00	24.00	-156.00	4.60	-1.00	-1.00	16.00	-1	27.00	1.70	1	0	0	0	0	12.22	1	0	1		
29509	-1	0	0	-1	1	-1	53	1	1	1	36.00	3.79	82.02	0	0.00	0.00	0.00	190.82		196.05	-7.56	4.52	28.60	-62.00	-21.00	-200.00	39.00	24.00	-156.00	4.60	-1.00	-1.00	16.00	-1	27.00	1.70	1	0	0	0	0	12.22	1	0	1		
29550	-1	0	0	-1	1	-1	53	1	1	1	36.00	3.79	82.02	0	0.00	0.00	0.00	190.82		195.64	-7.62	4.84	146.97	-62.00	-21.00	-200.00	39.00	24.00	-156.00	4.60	-1.00	-1.00	16.00	-1	27.00	1.70	1	0	0	0	0	12.22	1	0	1		
29600	-1	0	0	-1	1	-1	53	1	1	1	36.00	3.79	82.02	0	0.00	0.00	0.00	190.82		195.24	-7.59	5.06	84.46	-62.00	-21.00	-200.00	39.00	24.00	-156.00	4.60	-1.00	-1.00	16.00	-1	27.00	1.70	1	0	0	0	0	12.22	1	0	1		
29650	-1	0	0	-1	1	-1	53	1	1	1	36.00	3.79	82.02	0	0.00	0.00	0.00	190.82		194.65	-7.69	5.44	65.00	-62.00	-21.00	-200.00	39.00	24.00	-156.00	4.60	-1.00	-1.00	16.00	-1	27.00	1.70	1	0	0	0	0	12.22	1	0	1		
29700	-1	0	0	-1	1	-1	53	1	1	1	36.00	3.79	82.02	0	0.00	0.00	0.00	190.82		194.29	-7.69	5.69	83.78	-62.00	-21.00	-200.00	39.00	24.00	-156.00	4.60	-1.00	-1.00	16.00	-1	27.00	1.70	1	0	0	0	0	12.22	1	0	1		
29753	-1	0	0	-1	1	-1	53	1	1	1	36.00	3.79	82.02	0	0.00	0.00	0.00	190.82		193.82	-7.69	6.16	146.20	-62.00	-21.00	-200.00	39.00	24.00	-156.00	4.60	-1.00	-1.00	16.00	-1	27.00	1.70	1	0	0	0	0	12.22	1	0	1		
29800	-1	0	0	-1	1	-1	53	1	1	1	36.00	3.79	82.02	0	0.00	0.00	0.00	190.82		193.58	-7.66	6.23	147.32	-62.00	-21.00	-200.00	39.00	24.00	-156.00	4.60	-1.00	-1.00	16.00	-1	27.00	1.70	1	0	0	0	0	12.22	1	0	1		
29850	-1	0	0	-1	1	-1	53	1	1	1	36.00	3.79	82.02	0	0.00	0.00	0.00	190.82		193.23	-7.77	6.49	67.79	-62.00	-21.00	-200.00	39.00	24.00	-156.00	4.60	-1.00	-1.00	16.00	-1	27.00	1.70	1	0	0	0	0	12.22	1	0	1		
29900	-1	0	0	-1	1	-1	53	1	1	1	36.00	3.79	82.02	0	0.00	0.00	0.00	190.82		193.00	-7.82	6.62	82.05	-62.00	-21.00	-200.00	39.00	24.00	-156.00	4.60	-1.00	-1.00	16.00	-1	27.00	1.70	1	0	0	0	0	12.22	1	0	1		
29969	-1	0	0	-1	1	-1	53	1	1	1	36.00	3.79	82.02	0	0.00	0.00	0.00	190.82		192.54	-7.91	6.70	25.47	-62.00	-21.00	-200.00	39.00	24.00	-156.00	4.60	-1.00	-1.00	16.00	-1	25.00	1.70	1	0	0	0	0	12.22	1	0	1		
30001	-1	0	0	-1	1	-1	53	1	1	1	36.00	3.79	82.02	0	0.00	0.00	0.00	191.60		192.35	-7.93	6.72	141.56	-62.00	-21.00	-200.00	39.00	24.00	-156.00	4.60	-1.00	-1.00	16.00	-1	25.00	1.70	1	0	0	0	0	12.22	1	0	1		
30050	-1	0	0	-1	1	-1	53	1	1	1	36.00	3.79	82.02	0	0.00	0.00	0.00	191.60		192.12	-8.01	6.64	71.63	-62.00	-21.00	-200.00	39.00	24.00	-156.00	4.60	-1.00	-1.00	16.00	-1	25.00	1.70	1	0	0	0	0	12.22	1	0	1		
30100	-1	0	0	-1	1	-1	53	1	1	1	36.00	3.79	82.02	0	0.00	0.00	0.00	191.60		191.91	-8.07	6.63	84.63	-62.00	-21.00	-200.00	39.00	24.00	-156.00	4.60	-1.00	-1.00	16.00	-1	25.00	1.70	1	0	0	0	0	12.22	1	0	1		
30150	-1	0	0	-1	1	-1	53	1	1	1	36.00	3.79	82.02	0	0.00	0.00	0.00	191.60		191.62	-8.15	6.56	67.28	-62.00	-21.00	-200.00	39.00	24.00	-156.00	4.60	-1.00	-1.00	16.00	-1	25.00	1.70	1	0	0	0	0	12.22	1	0	1		
30203	-1	0	0	-1	1	-1	53	1	1	1	36.00	3.79	82.02	0	0.00	0.00	0.00	191.60		190.76	-8.26	6.81	147.32	-62.00	-21.00	-200.00	39.00	24.00	-156.00	4.60	-1.00	-1.00	16.00	-1	25.00	1.70	1	0	0	0	0	12.22	1	0	1		
30251	-1	0	0	-1	1	-1	53	1	1	1	36.00	3.79	82.02	0	0.00	0.00	0.00	191.60		190.15	-8.33	6.90	82.64	-62.00	-21.00	-200.00	39.00	24.00	-156.00	4.60	-1.00	-1.00	16.00	-1	25.00	1.70	1	0	0	0	0	12.22	1	0	1		
30300	-1	0	0	-1	1	-1	53	1	1	1	36.00	3.79	82.02	0	0.00	0.00	0.00	191.60		189.61	-8.29	7.02	84.52	-62.00	-21.00	-200.00	39.00	24.00	-156.00	4.60	-1.00	-1.00	16.00	-1	25.00	1.70	1	0	0	0	0	12.22	1	0	1		
30350	-1	0	0	-1	1	-1	53	1	1	1	36.00	3.79	82.02	0	0.00	0.00	0.00	191.60		188.85	-8.21	7.07	66.21	-62.00	-21.00	-200.00	39.00	24.00	-156.00	4.60	-1.00	-1.00	16.00	-1	25.00	1.70	1	0	0	0	0	12.22	1	0	1		
30408	-1	0	0	-1	1	-1	53	1	1	1	36.00	3.79	82.02	0	0.00	0.00	0.00	191.60		188.60	-8.17	6.87	29.24	-62.00	-21.00	-200.00	39.00	24.00	-156.00	4.60	-1.00	-1.00	16.00	-1	25.00	1.70	1	0	0	0	0	12.22	1	0	1		
30450	-1	0	0	-1	1	-1	53	1	1	1	36.00	3.79	82.02	0	0.00	0.00	0.00	191.60		188.70	-8.13	6.60	215.15	-62.00	-21.00	-200.00	39.00	24.00	-156.00	4.60	-1.00	-1.00	16.00	-1	25.00	1.70	1	0	0	0	0	12.22	1	0	1		
30500	-1	0	0	-1	1	-1	53	1	1	1	36.00	3.79	82.02	0	0.00	0.00	0.00	191.20		188.79	-8.07	6.29	84.57	-62.00	-21.00	-200.00	39.00	24.00	-156.00	4.60	-1.00	-1.00	16.00	-1	25.00	1.70	1	0	0	0	0	12.22	1	0	1		
30550	-1	0	0	-1	1	-1	53	1	1	1	36.00	3.79	82.02	0	0.00	0.00	0.00	191.20		188.89	-7.91	5.93	66.38	-62.00	-21.00	-200.00	39.00	24.00	-156.00	4.60	-1.00	-1.00	16.00	-1	25.00	1.70	1	0	0	0	0	12.22	1	0	1		
30600	-1	0	0	-1	1	-1	53	1	1	1	36.00	3.79	82.02	0	0.00	0.00	0.00	191.20		188.94	-7.88	5.73	77.09	-62.00	-21.00	-200.00	39.00	24.00	-156.00	4.60	-1.00	-1.00	16.00	-1	25.00	1.70	1	0	0	0	0	12.22	1	0	1		
30653	-1	0	0	-1	1	-1	53	1	1	1	36.00	3.79	82.02	0	0.00	0.00	0.00	191.20		189.18	-7.77	5.39	34.43	-62.00	-21.00	-200.00	39.00	24.00	-156.00	4.60	-1.00	-1.00	16.00	-1	25.00	1.70	1	0	0	0	0	12.22	1	0	1		
30700	-1	0	0	-1	1	-1	53	1	1	1	36.00	3.79	82.02	0	0.00	0.00	0.00	191.20		189.44	-7.67	5.05	213.49	-62.00	-21.00	-200.00	39.00	24.00	-156.00	4.60	-1.00	-1.00	16.00	-1	25.00	1.70	1	0	0	0	0	12.22	1	0	1		
30750	-1	0	0	-1	1	-1	53	1	1	1	36.00	3.79	82.02	0	0.00	0.00	0.00	191.20		189.78	-7.52	4.63	59.05	-62.00	-21.00	-200.00	39.00	24.00	-156.00	4.60	-1.00	-1.00	16.00	-1	25.00	1.70	1	0	0	0	0	12.22	1	0	1		
30800	-1	0	0	-1	1	-1	53	1	1	1	36.00	3.79	82.02	0	0.00	0.00	0.00	191.20		189.99	-7.45	4.47	81.27	-62.00	-21.00	-200.00	39.00	24.00	-156.00	4.60	-1.00	-1.00	16.00	-1	25.00	1.70	1	0	0	0	0	12.22	1	0	1		
30850	-1	0	0	-1	1	-1	53	1	1	1	36.00	3.79	82.02	0	0.00	0.00	0.00	191.20		190.29	-7.34	4.01	66.09	-62.00	-21.00	-200.00	39.00	24.00	-156.00	4.60	-1.00	-1.00	16.00	-1	25.00	1.70	1	0	0	0	0	12.22	1	0	1		
30909	-1	0	0	-1	1	-1	53	1	1	1	36.00	3.79	82.02	0	0.00	0.00	0.00	191.20		190.73	-7.18	3.65	28.35	-62.00	-21.00	-200.00	39.00	24.00	-156.00	4.60	-1.00	-1.00	16.00	-1	25.00	1.70	1	0	0	0	0	12.22	1	0	1		
30950	-1	0	0	-1	1	-1	53	1	1	1	36.00	3.79	82.02	0	0.00	0.00	0.00	191.20		191.04	-7.17	3.44	147.06	-62.00	-21.00	-200.00	39.00	24.00	-156.00	4.60	-1.00	-1.00	16.00	-1	26.00	1.70	1	0	0	0	0	12.22	1	0	1		
31000	-1	0	0	-1	1	-1	53	1	1	1	36.00	3.79	82.02	0	0.00	0.00	0.00	190.85		191.35	-7.16	3.18	84.46	-62.00	-21.00	-200.00	39.00	24.00	-156.00	4.60	-1.00	-1.00	16.00	-1	26.00	1.70	1	0	0	0	0	12.22	1	0	1		
31050	-1	0	0	-1	1	-1	53	1	1	1	36.00	3.79	82.02	0	0.00	0.00	0.00	190.85		191.80	-7.10	2.76	66.30	-62.00	-21.00	-200.00	39.00	24.00	-156.00	4.60	-1.00	-1.00	16.00	-1	26.00	1.70	1	0	0	0	0	12.22	1	0	1		
31100	-1	0	0	-1	1	-1	53	1	1	1	36.00	3.79	82.02	0	0.00	0.00	0.00	190.85		192.06	-7.09	2.58	85.53	-62.00	-21.00	-200.00	39.00	24.00	-156.00	4.60	-1.00	-1.00	16.00	-1	26.00	1.70	1	0	0	0	0	12.22	1	0	1		
31154	-1	0	0	-1	1	-1	53	1	1	1	36.00	3.79	82.02	0	0.00	0.00	0.00	190.85		192.29	-7.08	2.35	142.53	-62.00	-21.00	-200.00	39.00	24.00	-156.00	4.60	-1.00	-1.00	16.00	-1	26.00	1.70	1	0	0	0	0	12.22	1	0	1		
31200	-1	0	0	-1	1	-1	53	1	1	1	36.00	3.79	82.02	0	0.00	0.00	0.00	190.85		192.40	-7.18	2.28	147.58	-62.00	-21.00	-200.00	39.00	24.00	-156.00	4.60	-1.00	-1.00	16.00	-1	26.00	1.70	1	0	0	0	0	12.22	1	0	1		
31250	-1	0	0	-1	1	-1	53	1	1	1	36.00	3.79	82.02	0	0.00	0.00	0.00	190.85		192.53	-7.25	2.26	58.25	-62.00	-21.00	-200.00	39.00	24.00	-156.00	4.60	-1.00	-1.00	16.00	-1	26.00	1.70	1	0	0	0	0	12.22	1	0	1		
31300	-1	0	0	-1	1	-1	53	1	1	1	36.00	3.79	82.02	0	0.00	0.00	0.00	190.85		192.63	-7.26	2.31	81.25	-62.00	-21.00	-200.00	39.00	24.00	-156.00	4.60	-1.00	-1.00	16.00	-1	26.00	1.70	1	0	0	0	0	12.22	1	0	1		
31369	-1	0	0	-1	1	-1	53	1	1	1	36.00	3.79	82.02	0	0.00	0.00	0.00	190.85		193.33	-7.05	2.01	26.94	-62.00	-21.00	-200.00	39.00	24.00	-156.00	4.60	-1.00	-1.00	16.00	-1	26.00	1.60	1	0	0	0	0	12.22	1	0	1		
31400	-1	0	0	-1	1	-1	53	1	1	1	36.00	3.79	82.02	0	0.00	0.00	0.00	190.85		193.79	-6.97	1.85	141.48	-62.00	-21.00	-200.00	39.00	24.00	-156.00	4.60	-1.00	-1.00	16.00	-1	26.00	1.60	1	0	0	0	0	12.22	1	0	1		
31450	-1	0	0	-1	1	-1	53	1	1	1	36.00	3.79	82.02	0	0.00	0.00	0.00	190.85		194.42	-6.75	1.70	66.65	-62.00	-21.00	-200.00	39.00	24.00	-156.00	4.60	-1.00	-1.00	16.00	-1	26.00	1.60	1	0	0	0	0	12.22	1	0	1		
31500	-1	0	0	-1	1	-1	53	1	1	1	36.00	3.79	82.02	0	0.00	0.00	0.00	191.41		194.91	-6.66	1.65	76.08	-62.00	-21.00	-200.00	39.00	24.00	-156.00	4.60	-1.00	-1.00	16.00	-1	26.00	1.60	1	0	0	0	0	12.22	1	0	1		
31550	-1	0	0	-1	1	-1	53	1	1	1	36.00	3.79	82.02	0	0.00	0.00	0.00	191.41		195.59	-6.49	1.54	67.26	-62.00	-21.00	-200.00	39.00	24.00	-156.00	4.60	-1.00	-1.00	16.00	-1	26.00	1.60	1	0	0	0	0	12.22	1	0	1		
31603	-1	0	0	-1	1	-1	53	1	1	1	36.00	3.79	82.02	0	0.00	0.00	0.00	191.41		195.85	-6.29	1.70	140.06	-62.00	-21.00	-200.00	39.00	24.00	-156.00	4.60	0.76	-1.00	16.00	-1	26.00	1.60	1	0	0	0	0	12.22	1	0	1		
31650	-1	0	0	-1	1	-1	53	1	1	1	36.00	3.79	82.02	0	0.00	0.00	0.00	191.41		196.04	-6.23	1.84	72.95	-62.00	-21.00	-200.00	39.00	24.00	-156.00	4.60	0.76	-1.00	16.00	-1	26.00	1.60	1	0	0	0	0	12.22	1	0	1		
31700	-1	0	0	-1	1	-1	53	1	1	1	36.00	3.79	82.02	0	0.00	0.00	0.00	191.41		196.23	-6.16	1.91	83.17	-62.00	-21.00	-200.00	39.00	24.00	-156.00	4.60	0.76	-1.00	16.00	-1	26.00	1.60	1	0	0	0	0	12.22	1	0	1		
31750	-1	0	0	-1	1	-1	53	1	1	1	36.00	3.79	82.02	0	0.00	0.00	0.00	191.41		196.50	-6.10	2.08	65.58	-62.00	-21.00	-200.00	39.00	24.00	-156.00	4.60	0.76	-1.00	16.00	-1	26.00	1.60	1	0	0	0	0	12.22	1	0	1		
31800	-1	0	0	-1	1	-1	53	1	1	1	36.00	3.79	82.02	0	0.00	0.00	0.00	191.41		196.67	-6.04	2.19	78.10	-62.00	-21.00	-200.00	39.00	24.00	-156.00	4.60	0.76	-1.00	16.00	-1	26.00	1.60	1	0	0	0	0	12.22	1	0	1		
31853	-1	0	0	-1	1	-1	53	1	1	1	36.00	3.79	82.02	0	0.00	0.00	0.00	191.41		196.68	-6.11	2.45	147.23	-62.00	-21.00	-200.00	39.00	24.00	-156.00	4.60	0.76	-1.00	16.00	-1	26.00	1.60	1	0	0	0	0	12.22	1	0	1		
31900	-1	0	0	-1	1	-1	53	1	1	1	36.00	3.79	82.02	0	0.00	0.00	0.00	191.41		196.68	-6.12	2.64	146.97	-62.00	-21.00	-200.00	39.00	24.00	-156.00	4.60	0.76	-1.00	16.00	-1	26.00	1.60	1	0	0	0	0	12.22	1	0	1		
31950	-1	0	0	-1	1	-1	53	1	1	1	36.00	3.79	82.02	0	0.00	0.00	0.00	191.41		196.71	-6.12	2.86	66.44	-62.00	-21.00	-200.00	39.00	24.00	-156.00	4.60	0.76	-1.00	16.00	-1	25.00	1.60	1	0	0	0	0	12.22	1	0	1		
32000	-1	0	0	-1	1	-1	53	1	1	1	36.00	3.79	82.02	0	0.00	0.00	0.00	192.74		196.74	-6.20	2.90	81.33	-62.00	-21.00	-200.00	39.00	24.00	-156.00	4.60	0.76	-1.00	16.00	-1	25.00	1.60	1	0	0	0	0	12.22	1	0	1		
32053	-1	0	0	-1	1	-1	53	1	1	1	36.00	3.79	82.02	0	0.00	0.00	0.00	192.74		196.51	-6.27	3.16	34.44	-62.00	-21.00	-200.00	39.00	24.00	-156.00	4.60	0.76	-1.00	16.00	-1	25.00	1.60	1	0	0	0	0	12.22	1	0	1		
32100	-1	0	0	-1	1	-1	53	1	1	1	36.00	3.79	82.02	0	0.00	0.00	0.00	192.74		196.18	-6.36	3.41	147.67	-62.00	-21.00	-200.00	39.00	24.00	-156.00	4.60	0.76	-1.00	16.00	-1	25.00	1.60	1	0	0	0	0	12.22	1	0	1		
32150	-1	0	0	-1	1	-1	53	1	1	1	36.00	3.79	82.02	0	0.00	0.00	0.00	192.74		195.74	-6.48	3.66	65.67	-62.00	-21.00	-200.00	39.00	24.00	-156.00	4.60	0.76	-1.00	16.00	-1	25.00	1.60	1	0	0	0	0	12.22	1	0	1		
32200	-1	0	0	-1	1	-1	53	1	1	1	36.00	3.79	82.02	0	0.00	0.00	0.00	192.74		195.45	-6.59	3.78	82.43	-62.00	-21.00	-200.00	39.00	24.00	-156.00	4.60	0.76	-1.00	16.00	-1	25.00	1.60	1	0	0	0	0	12.22	1	0	1		
32269	-1	0	0	-1	1	-1	53	1	1	1	36.00	3.79	82.02	0	0.00	0.00	0.00	192.74		194.96	-6.87	3.82	27.09	-62.00	-21.00	-200.00	39.00	24.00	-156.00	4.60	0.76	-1.00	16.00	-1	25.00	1.60	1	0	0	0	0	12.22	1	0	1		
32301	-1	0	0	-1	1	-1	53	1	1	1	36.00	3.79	82.02	0	0.00	0.00	0.00	192.74		194.81	-6.97	3.83	140.45	-62.00	-21.00	-200.00	39.00	24.00	-156.00	4.60	0.76	-1.00	16.00	-1	25.00	1.60	1	0	0	0	0	12.22	1	0	1		
32350	-1	0	0	-1	1	-1	53	1	1	1	36.00	3.79	82.02	0	0.00	0.00	0.00	192.74		194.60	-7.18	3.90	65.27	-62.00	-21.00	-200.00	39.00	24.00	-156.00	4.60	0.76	-1.00	16.00	-1	25.00	1.60	1	0	0	0	0	12.22	1	0	1		
32400	-1	0	0	-1	1	-1	53	1	1	1	36.00	3.79	82.02	0	0.00	0.00	0.00	192.74		194.44	-7.30	3.88	77.50	-62.00	-21.00	-200.00	39.00	24.00	-156.00	4.60	0.76	-1.00	16.00	-1	25.00	1.60	1	0	0	0	0	12.22	1	0	1		
32450	-1	0	0	-1	1	-1	53	1	1	1	36.00	3.79	82.02	0	0.00	0.00	0.00	192.74		194.20	-7.43	3.96	65.79	-62.00	-21.00	-200.00	39.00	24.00	-156.00	4.60	0.76	-1.00	16.00	-1	25.00	1.60	1	0	0	0	0	12.22	1	0	1		
32503	-1	0	0	-1	1	-1	53	1	1	1	36.00	3.79	82.02	0	0.00	0.00	0.00	193.42		194.83	-7.46	3.34	146.80	-62.00	-21.00	-200.00	39.00	24.00	-156.00	4.60	0.76	-1.00	16.00	-1	25.00	1.60	1	0	0	0	0	12.22	1	0	1		
32550	-1	0	0	-1	1	-1	53	1	1	1	36.00	3.79	82.02	0	0.00	0.00	0.00	193.42		195.24	-7.45	3.06	84.20	-62.00	-21.00	-200.00	39.00	24.00	-156.00	4.60	0.76	-1.00	16.00	-1	25.00	1.60	1	0	0	0	0	12.22	1	0	1		
32600	-1	0	0	-1	1	-1	53	1	1	1	36.00	3.79	82.02	0	0.00	0.00	0.00	193.42		195.59	-7.42	2.83	82.56	-62.00	-21.00	-200.00	39.00	24.00	-156.00	4.60	0.76	-1.00	16.00	-1	25.00	1.60	1	0	0	0	0	12.22	1	0	1		
32650	-1	0	0	-1	1	-1	53	1	1	1	36.00	3.79	82.02	0	0.00	0.00	0.00	193.42		196.03	-7.35	2.73	65.79	-62.00	-21.00	-200.00	39.00	24.00	-156.00	4.60	0.76	-1.00	16.00	-1	25.00	1.60	1	0	0	0	0	12.22	1	0	1		
32709	-1	0	0	-1	1	-1	53	1	1	1	36.00	3.79	82.02	0	0.00	0.00	0.00	193.42		196.57	-7.27	2.60	28.53	-62.00	-21.00	-200.00	39.00	24.00	-156.00	4.60	0.76	-1.00	16.00	-1	25.00	1.60	1	0	0	0	0	12.22	1	0	1		
32750	-1	0	0	-1	1	-1	53	1	1	1	36.00	3.79	82.02	0	0.00	0.00	0.00	193.42		196.90	-7.16	2.55	147.23	-62.00	-21.00	-200.00	39.00	24.00	-156.00	4.60	0.76	-1.00	16.00	-1	25.00	1.60	1	0	0	0	0	12.22	1	0	1		
32800	-1	0	0	-1	1	-1	53	1	1	1	36.00	3.79	82.02	0	0.00	0.00	0.00	193.42		197.22	-7.00	2.54	82.84	-62.00	-21.00	-200.00	39.00	24.00	-156.00	4.60	0.76	-1.00	16.00	-1	25.00	1.60	1	0	0	0	0	12.22	1	0	1		
32850	-1	0	0	-1	1	-1	53	1	1	1	36.00	3.79	82.02	0	0.00	0.00	0.00	193.42		197.66	-6.82	2.59	57.56	-62.00	-21.00	-200.00	39.00	24.00	-156.00	4.60	0.76	-1.00	16.00	-1	25.00	1.60	1	0	0	0	0	12.22	1	0	1		
32900	-1	0	0	-1	1	-1	53	1	1	1	36.00	3.79	82.02	0	0.00	0.00	0.00	193.42		197.95	-6.72	2.50	81.38	-62.00	-21.00	-200.00	39.00	24.00	-156.00	4.60	0.76	-1.00	16.00	-1	24.00	1.60	1	0	0	0	0	12.22	1	0	1		
32953	-1	0	0	-1	1	-1	53	1	1	1	36.00	3.79	82.02	0	0.00	0.00	0.00	193.42		198.07	-6.59	2.68	34.23	-62.00	-21.00	-200.00	39.00	24.00	-156.00	4.60	0.76	-1.00	16.00	-1	24.00	1.60	1	0	0	0	0	10.73	1	0	1		
33000	-1	0	0	-1	1	-1	53	1	1	1	36.00	3.79	82.02	0	0.00	0.00	0.00	194.35		197.93	-6.61	2.91	147.23	-62.00	-21.00	-200.00	39.00	24.00	-156.00	4.60	0.76	-1.00	16.00	-1	24.00	1.60	1	0	0	0	0	10.73	1	0	1		
33050	-1	0	0	-1	1	-1	53	1	1	1	36.00	3.79	82.02	0	0.00	0.00	0.00	194.35		197.75	-6.69	3.30	66.63	-62.00	-21.00	-200.00	39.00	24.00	-156.00	4.60	0.76	-1.00	16.00	-1	24.00	1.60	1	0	0	0	0	10.73	1	0	1		
33100	-1	0	0	-1	1	-1	53	1	1	1	36.00	3.79	82.02	0	0.00	0.00	0.00	194.35		197.64	-6.68	3.49	81.30	-62.00	-21.00	-200.00	39.00	24.00	-156.00	4.60	0.76	-1.00	16.00	-1	24.00	1.60	1	0	0	0	0	10.73	1	0	1		
33169	-1	0	0	-1	1	-1	53	1	1	1	36.00	3.79	82.02	0	0.00	0.00	0.00	194.35		197.14	-6.78	3.99	26.70	-62.00	-21.00	-200.00	39.00	24.00	-156.00	4.60	0.76	-1.00	16.00	-1	24.00	1.60	1	0	0	0	0	10.73	1	0	1		
33201	-1	0	0	-1	1	-1	53	1	1	1	36.00	3.79	82.02	0	0.00	0.00	0.00	194.35		196.82	-6.81	4.21	141.32	-62.00	-21.00	-200.00	39.00	24.00	-156.00	4.60	0.76	-1.00	16.00	-1	24.00	1.60	1	0	0	0	0	10.73	1	0	1		
33250	-1	0	0	-1	1	-1	53	1	1	1	36.00	3.79	82.02	0	0.00	0.00	0.00	194.35		196.39	-6.89	4.52	71.53	-62.00	-21.00	-200.00	39.00	24.00	-156.00	4.60	0.76	-1.00	16.00	-1	24.00	1.60	1	0	0	0	0	10.73	1	0	1		
33300	-1	0	0	-1	1	-1	53	1	1	1	36.00	3.79	82.02	0	0.00	0.00	0.00	194.35		196.04	-7.02	4.70	84.52	-62.00	-21.00	-200.00	39.00	24.00	-156.00	4.60	0.76	-1.00	16.00	-1	24.00	1.60	1	0	0	0	0	10.73	1	0	1		
33350	-1	0	0	-1	1	-1	53	1	1	1	36.00	3.79	82.02	0	0.00	0.00	0.00	194.35		195.57	-7.12	4.81	58.49	-62.00	-21.00	-200.00	39.00	24.00	-156.00	4.60	0.76	-1.00	16.00	-1	24.00	1.60	1	0	0	0	0	10.73	1	0	1		
33409	-1	0	0	-1	1	-1	53	1	1	1	36.00	3.79	82.02	0	0.00	0.00	0.00	194.35		195.70	-7.10	4.63	29.32	-62.00	-21.00	-200.00	39.00	24.00	-156.00	4.60	0.76	-1.00	16.00	-1	24.00	1.60	1	0	0	0	0	10.73	1	0	1		
33451	-1	0	0	-1	1	-1	53	1	1	1	36.00	3.79	82.02	0	0.00	0.00	0.00	194.35		196.04	-7.14	4.51	141.48	-62.00	-21.00	-200.00	39.00	24.00	-156.00	4.60	0.76	-1.00	16.00	-1	24.00	1.60	1	0	0	0	0	10.73	1	0	1		
33500	-1	0	0	-1	1	-1	53	1	1	1	36.00	3.79	82.02	0	0.00	0.00	0.00	194.94		196.37	-7.19	4.39	84.49	-62.00	-21.00	-200.00	39.00	24.00	-156.00	4.60	0.76	-1.00	16.00	-1	24.00	1.60	1	0	0	0	0	10.73	1	0	1		
33550	-1	0	0	-1	1	-1	53	1	1	1	36.00	3.79	82.02	0	0.00	0.00	0.00	194.94		196.82	-7.27	4.18	67.01	-62.00	-21.00	-200.00	39.00	24.00	-156.00	4.60	0.76	-1.00	16.00	-1	24.00	1.60	1	0	0	0	0	10.73	1	0	1		
33600	-1	0	0	-1	1	-1	53	1	1	1	36.00	3.79	82.02	0	0.00	0.00	0.00	194.94		197.09	-7.28	4.11	82.37	-62.00	-21.00	-200.00	39.00	24.00	-156.00	4.60	0.76	-1.00	16.00	-1	24.00	1.60	1	0	0	0	0	10.73	1	0	1		
33653	-1	0	0	-1	1	-1	53	1	1	1	36.00	3.79	82.02	0	0.00	0.00	0.00	194.94		196.07	-7.54	4.73	146.63	-62.00	-21.00	-200.00	39.00	24.00	-156.00	4.60	0.76	-1.00	16.00	-1	24.00	1.60	1	0	0	0	0	10.73	1	0	1		
33700	-1	0	0	-1	1	-1	53	1	1	1	36.00	3.79	82.02	0	0.00	0.00	0.00	194.94		195.52	-7.61	5.02	147.32	-62.00	-21.00	-200.00	39.00	24.00	-156.00	4.60	0.76	-1.00	16.00	-1	24.00	1.60	1	0	0	0	0	10.73	1	0	1		
33750	-1	0	0	-1	1	-1	53	1	1	1	36.00	3.79	82.02	0	0.00	0.00	0.00	194.94		194.78	-7.71	5.41	66.79	-62.00	-21.00	-200.00	39.00	24.00	-156.00	4.60	0.76	-1.00	16.00	-1	24.00	1.60	1	0	0	0	0	10.73	1	0	1		
33800	-1	0	0	-1	1	-1	53	1	1	1	36.00	3.79	82.02	0	0.00	0.00	0.00	194.94		194.26	-7.73	5.71	78.22	-62.00	-21.00	-200.00	39.00	24.00	-156.00	4.60	0.76	-1.00	16.00	-1	24.00	1.60	1	0	0	0	0	10.73	1	0	1		
33853	-1	0	0	-1	1	-1	53	1	1	1	36.00	3.79	82.02	0	0.00	0.00	0.00	194.94		194.54	-7.55	5.19	34.43	-62.00	-21.00	-200.00	39.00	24.00	-156.00	4.60	0.76	-1.00	16.00	-1	23.00	1.60	1	0	0	0	0	10.73	1	0	1		
33900	-1	0	0	-1	1	-1	53	1	1	1	36.00	3.79	82.02	0	0.00	0.00	0.00	194.94		195.41	-7.37	4.57	146.63	-62.00	-21.00	-200.00	39.00	24.00	-156.00	4.60	0.76	-1.00	16.00	-1	23.00	1.60	1	0	0	0	0	10.73	1	0	1		
33950	-1	0	0	-1	1	-1	53	1	1	1	36.00	3.79	82.02	0	0.00	0.00	0.00	194.94		196.53	-7.07	3.89	66.58	-62.00	-21.00	-200.00	39.00	24.00	-156.00	4.60	0.76	-1.00	16.00	-1	23.00	1.60	1	0	0	0	0	10.73	1	0	1		
34000	-1	0	0	-1	1	-1	53	1	1	1	36.00	3.79	82.02	0	0.00	0.00	0.00	194.94		197.25	-6.90	3.54	83.11	-62.00	-21.00	-200.00	39.00	24.00	-156.00	4.60	0.76	-1.00	16.00	-1	23.00	1.40	1	0	0	0	0	10.73	1	0	1		
34069	-1	0	0	-1	1	-1	53	1	1	1	36.00	3.79	82.02	0	0.00	0.00	0.00	195.21		197.01	-6.90	3.84	26.88	-62.00	-21.00	-200.00	39.00	24.00	-156.00	4.60	0.76	-1.00	16.00	-1	23.00	1.40	1	0	0	0	0	10.73	1	0	1		
34101	-1	0	0	-1	1	-1	53	1	1	1	36.00	3.79	82.02	0	0.00	0.00	0.00	195.21		196.19	-6.94	4.31	141.56	-62.00	-21.00	-200.00	39.00	24.00	-156.00	4.60	0.76	-1.00	16.00	-1	23.00	1.40	1	0	0	0	0	10.73	1	0	1		
34150	-1	0	0	-1	1	-1	53	1	1	1	36.00	3.79	82.02	0	0.00	0.00	0.00	195.21		195.04	-7.03	4.88	70.15	-62.00	-21.00	-200.00	39.00	24.00	-156.00	4.60	0.76	-1.00	16.00	-1	23.00	1.40	1	0	0	0	0	10.73	1	0	1		
34200	-1	0	0	-1	1	-1	53	1	1	1	36.00	3.79	82.02	0	0.00	0.00	0.00	195.21		194.07	-7.09	5.34	82.59	-62.00	-21.00	-200.00	39.00	24.00	-156.00	4.60	0.76	-1.00	16.00	-1	23.00	1.40	1	0	0	0	0	10.73	1	0	1		
34250	-1	0	0	-1	1	-1	53	1	1	1	36.00	3.79	82.02	0	0.00	0.00	0.00	195.21		192.68	-7.20	5.97	65.86	-62.00	-21.00	-200.00	39.00	24.00	-156.00	4.60	0.76	-1.00	16.00	-1	23.00	1.40	1	0	0	0	0	10.73	1	0	1		
34304	-1	0	0	-1	1	-1	53	1	1	1	36.00	3.79	82.02	0	0.00	0.00	0.00	195.21		192.59	-7.27	5.99	145.94	-62.00	-21.00	-200.00	39.00	24.00	-156.00	4.60	0.76	-1.00	16.00	-1	23.00	1.40	1	0	0	0	0	10.73	1	0	1		
34350	-1	0	0	-1	1	-1	53	1	1	1	36.00	3.79	82.02	0	0.00	0.00	0.00	195.21		192.53	-7.34	5.99	84.43	-62.00	-21.00	-200.00	39.00	24.00	-156.00	4.60	0.76	-1.00	16.00	-1	23.00	1.40	1	0	0	0	0	10.73	1	0	1		
34400	-1	0	0	-1	1	-1	53	1	1	1	36.00	3.79	82.02	0	0.00	0.00	0.00	195.21		192.49	-7.28	5.83	75.92	-62.00	-21.00	-200.00	39.00	24.00	-156.00	4.60	0.76	-1.00	16.00	-1	23.00	1.40	1	0	0	0	0	10.73	1	0	1		
34450	-1	0	0	-1	1	-1	53	1	1	1	36.00	3.79	82.02	0	0.00	0.00	0.00	195.21		192.41	-7.32	5.73	64.70	-62.00	-21.00	-200.00	39.00	24.00	-156.00	4.60	0.76	-1.00	16.00	-1	23.00	1.40	1	0	0	0	0	10.73	1	0	1		
34508	-1	0	0	-1	1	-1	53	1	1	1	36.00	3.79	82.02	0	0.00	0.00	0.00	194.77		192.47	-7.32	5.45	29.20	-62.00	-21.00	-200.00	39.00	24.00	-156.00	4.60	0.76	-1.00	16.00	-1	23.00	1.40	1	0	0	0	0	10.73	1	0	1		
34550	-1	0	0	-1	1	-1	53	1	1	1	36.00	3.79	82.02	0	0.00	0.00	0.00	194.77		192.55	-7.34	5.25	146.54	-62.00	-21.00	-200.00	39.00	24.00	-156.00	4.60	0.76	-1.00	16.00	-1	23.00	1.40	1	0	0	0	0	10.73	1	0	1		
34600	-1	0	0	-1	1	-1	53	1	1	1	36.00	3.79	82.02	0	0.00	0.00	0.00	194.77		192.64	-7.36	4.96	84.60	-62.00	-21.00	-200.00	39.00	24.00	-156.00	4.60	0.76	-1.00	16.00	-1	23.00	1.40	1	0	0	0	0	10.73	1	0	1		
34650	-1	0	0	-1	1	-1	53	1	1	1	36.00	3.79	82.02	0	0.00	0.00	0.00	194.77		192.74	-7.41	4.70	65.75	-62.00	-21.00	-200.00	39.00	24.00	-156.00	4.60	0.76	-1.00	16.00	-1	23.00	1.40	1	0	0	0	0	10.73	1	0	1		
34700	-1	0	0	-1	1	-1	53	1	1	1	36.00	3.79	82.02	0	0.00	0.00	0.00	194.77		192.81	-7.39	4.43	76.55	-62.00	-21.00	-200.00	39.00	24.00	-156.00	4.60	0.76	-1.00	16.00	-1	23.00	1.40	1	0	0	0	0	10.73	1	0	1		
34753	-1	0	0	-1	1	-1	53	1	1	1	36.00	3.79	82.02	0	0.00	0.00	0.00	194.77		192.59	-7.46	4.34	146.80	-62.00	-21.00	-200.00	39.00	24.00	-156.00	4.60	0.76	-1.00	16.00	-1	23.00	1.40	1	0	0	0	0	10.73	1	0	1		
34800	-1	0	0	-1	1	-1	53	1	1	1	36.00	3.79	82.02	0	0.00	0.00	0.00	194.77		192.48	-7.46	4.22	147.15	-62.00	-21.00	-200.00	39.00	24.00	-156.00	4.60	0.76	-1.00	16.00	-1	23.00	1.40	1	0	0	0	0	10.73	1	0	1		
34850	-1	0	0	-1	1	-1	53	1	1	1	36.00	3.79	82.02	0	0.00	0.00	0.00	194.77		192.31	-7.59	4.23	67.24	-62.00	-21.00	-200.00	39.00	24.00	-156.00	4.60	0.76	-1.00	16.00	-1	26.00	1.40	1	0	0	0	0	10.73	1	0	1		
34900	-1	0	0	-1	1	-1	53	1	1	1	36.00	3.79	82.02	0	0.00	0.00	0.00	194.77		192.19	-7.64	4.25	85.21	-62.00	-21.00	-200.00	39.00	24.00	-156.00	4.60	0.76	-1.00	16.00	-1	26.00	1.40	1	0	0	0	0	10.73	1	0	1		
34969	-1	0	0	-1	1	-1	53	1	1	1	36.00	3.79	82.02	0	0.00	0.00	0.00	194.77		192.07	-7.64	4.20	25.59	-62.00	-21.00	-200.00	39.00	24.00	-156.00	4.60	0.76	-1.00	16.00	-1	26.00	1.40	1	0	0	0	0	10.73	1	0	1		
35001	-1	0	0	-1	1	-1	53	1	1	1	36.00	3.79	82.02	0	0.00	0.00	0.00	194.15		192.07	-7.67	4.15	141.24	-62.00	-21.00	-200.00	39.00	24.00	-156.00	4.60	0.76	-1.00	16.00	-1	26.00	1.40	1	0	0	0	0	10.73	1	0	1		
35050	-1	0	0	-1	1	-1	53	1	1	1	36.00	3.79	82.02	0	0.00	0.00	0.00	194.15		192.06	-7.69	4.08	70.15	-62.00	-21.00	-200.00	39.00	24.00	-156.00	4.60	0.76	-1.00	16.00	-1	26.00	1.40	1	0	0	0	0	10.73	1	0	1		
35100	-1	0	0	-1	1	-1	53	1	1	1	36.00	3.79	82.02	0	0.00	0.00	0.00	194.15		192.05	-7.69	4.03	82.54	-62.00	-21.00	-200.00	39.00	24.00	-156.00	4.60	0.76	-1.00	16.00	-1	26.00	1.40	1	0	0	0	0	10.73	1	0	1		
35150	-1	0	0	-1	1	-1	53	1	1	1	36.00	3.79	82.02	0	0.00	0.00	0.00	194.15		192.04	-7.65	3.96	67.06	-62.00	-21.00	-200.00	39.00	24.00	-156.00	4.60	0.76	-1.00	16.00	-1	26.00	1.40	1	0	0	0	0	10.73	1	0	1		
35204	-1	0	0	-1	1	-1	53	1	1	1	36.00	3.79	82.02	0	0.00	0.00	0.00	194.15		192.14	-7.64	3.85	146.54	-62.00	-21.00	-200.00	39.00	24.00	-156.00	4.60	0.76	-1.00	16.00	-1	26.00	1.40	1	0	0	0	0	10.73	1	0	1		
35250	-1	0	0	-1	1	-1	53	1	1	1	36.00	3.79	82.02	0	0.00	0.00	0.00	194.15		192.21	-7.62	3.69	84.37	-62.00	-21.00	-200.00	39.00	24.00	-156.00	4.60	0.76	-1.00	16.00	-1	26.00	1.40	1	0	0	0	0	10.73	1	0	1		
35300	-1	0	0	-1	1	-1	53	1	1	1	36.00	3.79	82.02	0	0.00	0.00	0.00	194.15		192.26	-7.56	3.72	77.35	-62.00	-21.00	-200.00	39.00	24.00	-156.00	4.60	0.76	-1.00	16.00	-1	26.00	1.40	1	0	0	0	0	10.73	1	0	1		
35350	-1	0	0	-1	1	-1	53	1	1	1	36.00	3.79	82.02	0	0.00	0.00	0.00	194.15		192.32	-7.51	3.71	65.72	-62.00	-21.00	-200.00	39.00	24.00	-156.00	4.60	0.76	-1.00	16.00	-1	26.00	1.40	1	0	0	0	0	10.73	1	0	1		
35408	-1	0	0	-1	1	-1	53	1	1	1	36.00	3.79	82.02	0	0.00	0.00	0.00	194.15		192.92	-7.29	3.10	29.11	-62.00	-21.00	-200.00	39.00	24.00	-156.00	4.60	0.76	-1.00	16.00	-1	26.00	1.40	1	0	0	0	0	10.73	1	0	1		
35450	-1	0	0	-1	1	-1	53	1	1	1	36.00	3.79	82.02	0	0.00	0.00	0.00	194.15		193.47	-7.11	2.68	213.13	-62.00	-21.00	-200.00	39.00	24.00	-156.00	4.60	0.76	-1.00	16.00	-1	26.00	1.40	1	0	0	0	0	10.73	1	0	1		
35500	-1	0	0	-1	1	-1	53	1	1	1	36.00	3.79	82.02	0	0.00	0.00	0.00	193.71		194.06	-6.94	2.22	84.35	-62.00	-21.00	-200.00	39.00	24.00	-156.00	4.60	0.76	-1.00	16.00	-1	26.00	1.40	1	0	0	0	0	10.73	1	0	1		
35550	-1	0	0	-1	1	-1	53	1	1	1	36.00	3.79	82.02	0	0.00	0.00	0.00	193.71		194.83	-6.66	1.68	60.69	-62.00	-21.00	-200.00	39.00	24.00	-156.00	4.60	0.76	-1.00	16.00	-1	26.00	1.40	1	0	0	0	0	10.73	1	0	1		
35600	-1	0	0	-1	1	-1	53	1	1	1	36.00	3.79	82.02	0	0.00	0.00	0.00	193.71		195.30	-6.50	1.39	76.57	-62.00	-21.00	-200.00	39.00	24.00	-156.00	4.60	0.76	-1.00	16.00	-1	26.00	1.40	1	0	0	0	0	10.73	1	0	1		
35653	-1	0	0	-1	1	-1	53	1	1	1	36.00	3.79	82.02	0	0.00	0.00	0.00	193.71		196.01	-6.54	1.37	34.46	-62.00	-21.00	-200.00	39.00	24.00	-156.00	4.60	0.76	-1.00	16.00	-1	26.00	1.40	1	0	0	0	0	10.73	1	0	1		
35700	-1	0	0	-1	1	-1	53	1	1	1	36.00	3.79	82.02	0	0.00	0.00	0.00	193.71		196.43	-6.57	1.26	147.32	-62.00	-21.00	-200.00	39.00	24.00	-156.00	4.60	0.76	-1.00	16.00	-1	26.00	1.40	1	0	0	0	0	10.73	1	0	1		
35750	-1	0	0	-1	1	-1	53	1	1	1	36.00	3.79	82.02	0	0.00	0.00	0.00	193.71		197.02	-6.49	1.26	65.65	-62.00	-21.00	-200.00	39.00	24.00	-156.00	4.60	0.76	-1.00	16.00	-1	26.00	1.40	1	0	0	0	0	10.73	1	0	1		
35800	-1	0	0	-1	1	-1	53	1	1	1	36.00	3.79	82.02	0	0.00	0.00	0.00	193.71		197.40	-6.44	1.35	82.97	-62.00	-21.00	-200.00	39.00	24.00	-156.00	4.60	0.76	-1.00	16.00	-1	26.00	1.40	1	0	0	0	0	10.73	1	0	1		
35850	-1	0	0	-1	1	-1	53	1	1	1	36.00	3.79	82.02	0	0.00	0.00	0.00	193.71		197.92	-6.41	1.42	65.74	-62.00	-21.00	-200.00	39.00	24.00	-156.00	4.60	0.76	-1.00	16.00	-1	26.00	1.40	1	0	0	0	0	10.73	1	0	1		
35903	-1	0	0	-1	1	-1	53	1	1	1	36.00	3.79	82.02	0	0.00	0.00	0.00	193.71		197.64	-6.47	1.97	147.23	-62.00	-21.00	-200.00	39.00	24.00	-156.00	4.60	0.76	-1.00	16.00	-1	26.00	1.40	1	0	0	0	0	10.73	1	0	1		
35950	-1	0	0	-1	1	-1	53	1	1	1	36.00	3.79	82.02	0	0.00	0.00	0.00	193.71		197.45	-6.53	2.41	84.46	-62.00	-21.00	-200.00	39.00	24.00	-156.00	4.60	0.76	-1.00	16.00	-1	26.00	1.40	1	0	0	0	0	10.73	1	0	1		
36000	-1	0	0	-1	1	-1	53	1	1	1	36.00	3.79	82.02	0	0.00	0.00	0.00	194.52		197.31	-6.52	2.62	82.67	-62.00	-21.00	-200.00	39.00	24.00	-156.00	4.60	0.76	-1.00	16.00	-1	26.00	1.40	1	0	0	0	0	10.73	1	0	1		
36050	-1	0	0	-1	1	-1	53	1	1	1	36.00	3.79	82.02	0	0.00	0.00	0.00	194.52		197.10	-6.63	2.96	67.01	-62.00	-21.00	-200.00	39.00	24.00	-156.00	4.60	0.76	-1.00	16.00	-1	26.00	1.40	1	0	0	0	0	10.73	1	0	1		
36109	-1	0	0	-1	1	-1	53	1	1	1	36.00	3.79	82.02	0	0.00	0.00	0.00	194.52		197.87	-6.36	3.00	29.38	-62.00	-21.00	-200.00	39.00	24.00	-156.00	4.60	0.76	-1.00	16.00	-1	26.00	1.40	1	0	0	0	0	10.73	1	0	1		
36150	-1	0	0	-1	1	-1	53	1	1	1	36.00	3.79	82.02	0	0.00	0.00	0.00	194.52		198.72	-6.33	3.08	147.32	-62.00	-21.00	-200.00	39.00	24.00	-156.00	4.60	0.76	-1.00	16.00	-1	26.00	1.40	1	0	0	0	0	10.73	1	0	1		
36200	-1	0	0	-1	1	-1	53	1	1	1	36.00	3.79	82.02	0	0.00	0.00	0.00	194.52		199.51	-6.29	3.20	77.59	-62.00	-21.00	-200.00	39.00	24.00	-156.00	4.60	0.76	-1.00	16.00	-1	26.00	1.40	1	0	0	0	0	10.73	1	0	1		
36250	-1	0	0	-1	1	-1	53	1	1	1	36.00	3.79	82.02	0	0.00	0.00	0.00	194.52		200.57	-6.17	3.14	58.51	-62.00	-21.00	-200.00	39.00	24.00	-156.00	4.60	0.76	-1.00	16.00	-1	26.00	1.40	1	0	0	0	0	10.73	1	0	1		
36300	-1	0	0	-1	1	-1	53	1	1	1	36.00	3.79	82.02	0	0.00	0.00	0.00	194.52		201.17	-6.20	3.19	83.14	-62.00	-21.00	-200.00	39.00	24.00	-156.00	4.60	0.76	-1.00	16.00	-1	26.00	1.40	1	0	0	0	0	10.73	1	0	1		
36354	-1	0	0	-1	1	-1	53	1	1	1	36.00	3.79	82.02	0	0.00	0.00	0.00	194.52		201.63	-6.26	3.30	34.45	-62.00	-21.00	-200.00	39.00	24.00	-156.00	4.60	0.76	-1.00	16.00	-1	26.00	1.40	1	0	0	0	0	10.73	1	0	1		
36400	-1	0	0	-1	1	-1	53	1	1	1	36.00	3.79	82.02	0	0.00	0.00	0.00	194.52		201.51	-6.27	3.44	147.58	-62.00	-21.00	-200.00	39.00	24.00	-156.00	4.60	0.76	-1.00	16.00	-1	26.00	1.40	1	0	0	0	0	10.73	1	0	1		
36450	-1	0	0	-1	1	-1	53	1	1	1	36.00	3.79	82.02	0	0.00	0.00	0.00	194.52		201.38	-6.37	3.49	65.50	-62.00	-21.00	-200.00	39.00	24.00	-156.00	4.60	0.76	-1.00	16.00	-1	26.00	1.40	1	0	0	0	0	10.73	1	0	1		
36500	-1	0	0	-1	1	-1	53	1	1	1	36.00	3.79	82.02	0	0.00	0.00	0.00	196.01		201.28	-6.40	3.52	83.25	-62.00	-21.00	-200.00	39.00	24.00	-156.00	4.60	0.76	-1.00	16.00	-1	26.00	1.40	1	0	0	0	0	10.73	1	0	1		
36569	-1	0	0	-1	1	-1	53	1	1	1	36.00	3.79	82.02	0	0.00	0.00	0.00	196.01		201.03	-6.56	3.76	27.08	-62.00	-21.00	-200.00	39.00	24.00	-156.00	4.60	0.76	-1.00	16.00	-1	26.00	1.40	1	0	0	0	0	10.73	1	0	1		
36600	-1	0	0	-1	1	-1	53	1	1	1	36.00	3.79	82.02	0	0.00	0.00	0.00	196.01		200.90	-6.63	3.83	141.64	-62.00	-21.00	-200.00	39.00	24.00	-156.00	4.60	0.76	-1.00	16.00	-1	26.00	1.40	1	0	0	0	0	10.73	1	0	1		
36651	-1	0	0	-1	1	-1	53	1	1	1	36.00	3.79	82.02	0	0.00	0.00	0.00	196.01		200.72	-6.66	3.93	66.72	-62.00	-21.00	-200.00	39.00	24.00	-156.00	4.60	0.76	-1.00	16.00	-1	26.00	1.40	1	0	0	0	0	10.73	1	0	1		
36700	-1	0	0	-1	1	-1	53	1	1	1	36.00	3.79	82.02	0	0.00	0.00	0.00	196.01		200.58	-6.69	3.95	83.44	-62.00	-21.00	-200.00	39.00	24.00	-156.00	4.60	0.76	-1.00	16.00	-1	26.00	1.40	1	0	0	0	0	10.73	1	0	1		
36750	-1	0	0	-1	1	-1	53	1	1	1	36.00	3.79	82.02	0	0.00	0.00	0.00	196.01		200.38	-6.84	4.02	67.06	-62.00	-21.00	-200.00	39.00	24.00	-156.00	4.50	0.76	-1.00	16.00	-1	26.00	1.40	1	0	0	0	0	10.73	1	0	1		
36803	-1	0	0	-1	1	-1	53	1	1	1	36.00	3.79	82.02	0	0.00	0.00	0.00	196.01		201.15	-6.31	3.05	147.23	-62.00	-21.00	-200.00	39.00	24.00	-156.00	4.50	0.76	-1.00	16.00	-1	26.00	1.40	1	0	0	0	0	10.73	1	0	1		
36850	-1	0	0	-1	1	-1	53	1	1	1	36.00	3.79	82.02	0	0.00	0.00	0.00	196.01		201.66	-6.11	2.49	84.43	-62.00	-21.00	-200.00	39.00	24.00	-156.00	4.50	0.76	-1.00	16.00	-1	26.00	1.40	1	0	0	0	0	10.73	1	0	1		
36900	-1	0	0	-1	1	-1	53	1	1	1	36.00	3.79	82.02	0	0.00	0.00	0.00	196.01		202.10	-5.98	2.08	82.54	-62.00	-21.00	-200.00	39.00	24.00	-156.00	4.50	0.76	-1.00	16.00	-1	26.00	1.40	1	0	0	0	0	10.73	1	0	1		
36950	-1	0	0	-1	1	-1	53	1	1	1	36.00	3.79	82.02	0	0.00	0.00	0.00	196.01		202.70	-5.78	1.56	67.17	-62.00	-21.00	-200.00	39.00	24.00	-156.00	4.50	0.76	-1.00	16.00	-1	25.00	1.40	1	0	0	0	0	10.73	1	0	1		
37009	-1	0	0	-1	1	-1	53	1	1	1	36.00	3.79	82.02	0	0.00	0.00	0.00	197.53		202.40	-5.98	1.63	28.73	-62.00	-21.00	-200.00	39.00	24.00	-156.00	4.50	0.76	-1.00	16.00	-1	25.00	1.40	1	0	0	0	0	10.73	1	0	1		
37050	-1	0	0	-1	1	-1	53	1	1	1	36.00	3.79	82.02	0	0.00	0.00	0.00	197.53		201.85	-6.15	1.92	216.08	-62.00	-21.00	-200.00	39.00	24.00	-156.00	4.50	0.76	-1.00	16.00	-1	25.00	1.40	1	0	0	0	0	10.73	1	0	1		
37100	-1	0	0	-1	1	-1	53	1	1	1	36.00	3.79	82.02	0	0.00	0.00	0.00	197.53		201.26	-6.39	2.21	82.86	-62.00	-21.00	-200.00	39.00	24.00	-156.00	4.50	0.76	-1.00	16.00	-1	25.00	1.40	1	0	0	0	0	10.73	1	0	1		
37150	-1	0	0	-1	1	-1	53	1	1	1	36.00	3.79	82.02	0	0.00	0.00	0.00	197.53		200.48	-6.61	2.54	66.68	-62.00	-21.00	-200.00	39.00	24.00	-156.00	4.50	0.76	-1.00	16.00	-1	25.00	1.40	1	0	0	0	0	10.73	1	0	1		
37200	-1	0	0	-1	1	-1	53	1	1	1	36.00	3.79	82.02	0	0.00	0.00	0.00	197.53		200.00	-6.73	2.68	83.06	-62.00	-21.00	-200.00	39.00	24.00	-156.00	4.50	0.76	-1.00	16.00	-1	25.00	1.40	1	0	0	0	0	10.73	1	0	1		
37254	-1	0	0	-1	1	-1	53	1	1	1	36.00	3.79	82.02	0	0.00	0.00	0.00	197.53		199.76	-6.75	2.72	34.36	-62.00	-21.00	-200.00	39.00	24.00	-156.00	4.50	0.76	-1.00	16.00	-1	25.00	1.40	1	0	0	0	0	10.73	1	0	1		
37300	-1	0	0	-1	1	-1	53	1	1	1	36.00	3.79	82.02	0	0.00	0.00	0.00	197.53		199.97	-6.73	2.63	146.89	-62.00	-21.00	-200.00	39.00	24.00	-156.00	4.50	0.76	-1.00	16.00	-1	25.00	1.40	1	0	0	0	0	10.73	1	0	1		
37350	-1	0	0	-1	1	-1	53	1	1	1	36.00	3.79	82.02	0	0.00	0.00	0.00	197.53		200.31	-6.76	2.46	67.11	-62.00	-21.00	-200.00	39.00	24.00	-156.00	4.50	0.76	-1.00	16.00	-1	25.00	1.40	1	0	0	0	0	10.73	1	0	1		
37400	-1	0	0	-1	1	-1	53	1	1	1	36.00	3.79	82.02	0	0.00	0.00	0.00	197.53		200.53	-6.68	2.35	80.67	-62.00	-21.00	-200.00	39.00	24.00	-156.00	4.50	0.76	-1.00	16.00	-1	25.00	1.40	1	0	0	0	0	10.73	1	0	1		
37450	-1	0	0	-1	1	-1	53	1	1	1	36.00	3.79	82.02	0	0.00	0.00	0.00	197.53		200.81	-6.68	2.46	65.60	-62.00	-21.00	-200.00	39.00	24.00	-156.00	4.50	0.76	-1.00	16.00	-1	25.00	1.40	1	0	0	0	0	10.73	1	0	1		
37504	-1	0	0	-1	1	-1	53	1	1	1	36.00	3.79	82.02	0	0.00	0.00	0.00	198.32		200.49	-6.71	2.79	145.60	-62.00	-21.00	-200.00	39.00	24.00	-156.00	4.50	0.76	-1.00	16.00	-1	25.00	1.40	1	0	0	0	0	10.73	1	0	1		
37550	-1	0	0	-1	1	-1	53	1	1	1	36.00	3.79	82.02	0	0.00	0.00	0.00	198.32		200.27	-6.78	3.04	82.48	-62.00	-21.00	-200.00	39.00	24.00	-156.00	4.50	0.76	-1.00	16.00	-1	25.00	1.40	1	0	0	0	0	10.73	1	0	1		
37600	-1	0	0	-1	1	-1	53	1	1	1	36.00	3.79	82.02	0	0.00	0.00	0.00	198.32		200.09	-6.77	3.14	75.57	-62.00	-21.00	-200.00	39.00	24.00	-156.00	4.50	0.76	-1.00	16.00	-1	25.00	1.40	1	0	0	0	0	10.73	1	0	1		
37650	-1	0	0	-1	1	-1	53	1	1	1	36.00	3.79	82.02	0	0.00	0.00	0.00	198.32		199.84	-6.90	3.46	65.69	-62.00	-21.00	-200.00	39.00	24.00	-156.00	4.50	0.76	-1.00	16.00	-1	25.00	1.40	1	0	0	0	0	10.73	1	0	1		
37708	-1	0	0	-1	1	-1	53	1	1	1	36.00	3.79	82.02	0	0.00	0.00	0.00	198.32		199.31	-7.09	3.89	29.32	-62.00	-21.00	-200.00	39.00	24.00	-156.00	4.50	0.76	-1.00	16.00	-1	25.00	1.40	1	0	0	0	0	10.73	1	0	1		
37750	-1	0	0	-1	1	-1	53	1	1	1	36.00	3.79	82.02	0	0.00	0.00	0.00	198.32		198.87	-7.10	4.17	141.72	-62.00	-21.00	-200.00	39.00	24.00	-156.00	4.50	0.76	-1.00	16.00	-1	25.00	1.40	1	0	0	0	0	10.73	1	0	1		
37800	-1	0	0	-1	1	-1	53	1	1	1	36.00	3.79	82.02	0	0.00	0.00	0.00	198.32		198.44	-7.11	4.37	82.73	-62.00	-21.00	-200.00	39.00	24.00	-156.00	4.50	0.76	-1.00	16.00	-1	25.00	1.40	1	0	0	0	0	10.73	1	0	1		
