Millis,m_currentPosition,m_pressedButtonDebug,m_bytesToSent,CurrentPosition,CurrentDirection,TargetPosition,MSStopped,startButton,stopButton,parkingButton,m_P,m_I,m_D,m_goalType,m_goal,m_lastError,m_errorSum,m_lastFilteredYaw,,yaw,pitch,roll,freq,magMin[0],magMin[1],magMin[2],magMax[0],magMax[1],magMax[2],m_speed,m_speed.tripMileage,m_speed.totalMileage,m_speed.waterTemp,m_lampIntensity,m_wind.apparentAngle,m_wind.apparentSpeed,m_wind.displayInKnots,m_wind.displayInMpS,m_depth.anchorAlarm,m_depth.deepAlarm,m_depth.defective,m_depth.depthBelowTransductor,m_depth.metricUnits,m_depth.shallowAlarm,m_depth.unknown,Position,
2050,1,0,0,1,1,1,53,0,1,0,2.00,0.20,8.00,0,0.00,0.00,0.00,25.83,,68.39,6.00,-7.14,97.58,-69.00,-48.00,-220.00,122.00,144.00,50.00,5.40,-1.00,-1.00,19.00,-1,33.00,1.30,1,0,0,0,0,9.14,1,0,1,,
3050,1,0,0,1,1,1,53,0,1,0,2.00,0.20,8.00,0,0.00,0.00,0.00,35.61,,93.18,11.39,-8.91,51.25,-69.00,-48.00,-220.00,122.00,144.00,50.00,5.40,-1.00,-1.00,19.00,-1,34.00,1.30,1,0,0,0,0,12.16,1,0,1,,
4050,1,0,0,1,1,1,53,0,1,0,2.00,0.20,8.00,0,0.00,0.00,0.00,46.13,,96.69,11.42,-8.84,49.26,-69.00,-48.00,-220.00,122.00,144.00,50.00,5.40,-1.00,-1.00,19.00,-1,34.00,1.30,1,0,0,0,0,12.16,1,0,1,,
5050,1,0,0,1,1,1,53,0,1,0,2.00,0.20,8.00,0,0.00,0.00,0.00,54.70,,97.74,11.17,-8.38,51.42,-69.00,-48.00,-220.00,122.00,144.00,50.00,5.40,-1.00,-1.00,21.00,-1,34.00,1.30,1,0,0,0,0,12.16,1,0,1,,
6050,1,0,0,1,1,1,53,0,1,0,2.00,0.20,8.00,0,0.00,0.00,0.00,61.90,,97.04,10.91,-8.78,49.33,-69.00,-48.00,-220.00,122.00,144.00,50.00,5.40,-1.00,-1.00,19.00,-1,34.00,1.30,1,0,0,0,0,10.67,1,0,1,,
7050,1,0,0,1,1,1,53,0,1,0,2.00,0.20,8.00,0,0.00,0.00,0.00,67.82,,96.97,10.90,-8.98,50.74,-69.00,-48.00,-220.00,122.00,144.00,50.00,5.40,-1.00,-1.00,19.00,-1,33.00,1.30,1,0,0,0,0,90.19,1,0,1,,
8050,1,0,0,1,1,1,53,0,1,0,2.00,0.20,8.00,0,0.00,0.00,0.00,72.74,,93.36,11.58,-8.39,51.74,-69.00,-48.00,-220.00,122.00,144.00,50.00,5.30,-1.00,-1.00,19.00,-1,33.00,1.30,1,0,0,0,0,90.19,1,0,1,,
9070,1,0,0,1,1,1,53,0,1,0,2.00,0.20,8.00,0,0.00,0.00,0.00,76.51,,95.87,10.09,-8.88,23.22,-69.00,-48.00,-220.00,122.00,144.00,50.00,5.30,1.32,-1.00,19.00,-1,33.00,1.30,1,0,0,0,0,90.19,1,0,1,,
10050,1,0,0,1,1,1,53,0,1,0,2.00,0.20,8.00,0,0.00,0.00,0.00,80.16,,98.36,11.85,-9.21,50.76,-69.00,-48.00,-220.00,122.00,144.00,50.00,5.30,1.32,-1.00,21.00,-1,33.00,1.20,1,0,0,0,0,90.19,1,0,1,,
11057,1,0,0,1,1,1,53,0,1,0,2.00,0.20,8.00,0,0.00,0.00,0.00,83.20,,96.87,12.32,-8.94,135.72,-69.00,-48.00,-220.00,122.00,144.00,50.00,5.30,1.32,-1.00,19.00,-1,33.00,1.20,1,0,0,0,0,90.19,1,0,1,,
12050,1,0,0,1,1,1,53,0,1,0,2.00,0.20,8.00,0,0.00,0.00,0.00,85.69,,97.32,11.60,-8.08,51.48,-69.00,-48.00,-220.00,122.00,144.00,50.00,5.30,1.32,-1.00,19.00,-1,33.00,1.20,1,0,0,0,0,89.15,1,0,1,,
13050,1,0,0,1,1,1,53,0,1,0,2.00,0.20,8.00,0,0.00,0.00,0.00,87.62,,97.54,11.46,-8.59,101.38,-69.00,-48.00,-220.00,122.00,144.00,50.00,5.30,1.32,-1.00,19.00,-1,34.00,1.20,1,0,0,0,0,89.15,1,0,1,,
14050,1,0,0,1,1,1,53,0,1,0,2.00,0.20,8.00,0,0.00,0.00,0.00,89.22,,96.17,11.64,-8.41,52.14,-69.00,-48.00,-220.00,122.00,144.00,50.00,5.30,1.32,-1.00,19.00,-1,34.00,1.20,1,0,0,0,0,18.20,1,0,1,,
15050,1,0,0,1,1,1,53,0,1,0,2.00,0.20,8.00,0,0.00,0.00,0.00,90.52,,94.48,11.54,-8.92,49.26,-69.00,-48.00,-220.00,122.00,144.00,50.00,5.30,1.32,-1.00,19.00,-1,34.00,1.20,1,0,0,0,0,89.15,1,0,1,,
16050,1,0,0,1,1,1,53,0,1,0,2.00,0.20,8.00,0,0.00,0.00,0.00,91.55,,97.94,11.85,-8.87,49.08,-69.00,-48.00,-220.00,122.00,144.00,50.00,5.30,1.32,-1.00,19.00,-1,33.00,1.20,1,0,0,0,0,89.15,1,0,1,,
17050,1,0,0,1,1,1,53,0,1,0,2.00,0.20,8.00,0,0.00,0.00,0.00,92.60,,96.47,12.06,-9.38,50.92,-69.00,-48.00,-220.00,122.00,144.00,50.00,5.30,1.32,-1.00,19.00,-1,33.00,1.20,1,0,0,0,0,40.72,1,0,1,,
18050,1,0,0,1,1,1,53,0,1,0,2.00,0.20,8.00,0,0.00,0.00,0.00,93.48,,96.06,12.00,-8.48,49.01,-69.00,-48.00,-220.00,122.00,144.00,50.00,5.30,1.32,-1.00,19.00,-1,34.00,1.20,1,0,0,0,0,40.72,1,0,1,,
19050,1,0,0,1,1,1,53,0,1,0,2.00,0.20,8.00,0,0.00,0.00,0.00,94.02,,97.79,11.64,-8.89,51.42,-69.00,-48.00,-220.00,122.00,144.00,50.00,5.30,1.32,-1.00,19.00,-1,34.00,1.20,1,0,0,0,0,19.69,1,0,1,,
20070,1,0,0,1,1,1,53,0,1,0,2.00,0.20,8.00,0,0.00,0.00,0.00,94.55,,98.54,11.18,-8.34,23.41,-69.00,-48.00,-220.00,122.00,144.00,50.00,5.30,1.32,-1.00,19.00,-1,35.00,1.20,1,0,0,0,0,89.03,1,0,1,,
21050,27,0,0,27,2,151,0,0,1,0,2.00,0.20,8.00,0,0.00,0.00,0.00,95.12,,97.29,11.56,-8.64,51.37,-69.00,-48.00,-220.00,122.00,144.00,50.00,5.40,1.32,-1.00,19.00,-1,35.00,1.30,1,0,0,0,0,39.29,1,0,1,,
22055,71,0,0,71,2,151,0,0,1,1,2.00,0.20,8.00,0,0.00,0.00,0.00,95.28,,95.97,10.90,-8.07,146.28,-69.00,-48.00,-220.00,122.00,144.00,50.00,5.40,1.32,-1.00,19.00,-1,35.00,1.30,1,0,0,0,0,39.29,1,0,1,,
23050,120,0,0,120,2,151,0,0,1,1,2.00,0.20,8.00,0,0.00,0.00,0.00,95.42,,96.51,10.98,-8.07,50.76,-69.00,-48.00,-220.00,122.00,144.00,50.00,5.40,1.32,-1.00,19.00,-1,34.00,1.30,1,0,0,0,0,18.20,1,0,1,,
24050,152,0,0,152,1,152,23700,1,1,1,2.00,0.20,8.00,0,0.00,0.00,0.00,95.58,,97.21,11.59,-8.06,100.36,-69.00,-48.00,-220.00,122.00,144.00,50.00,5.40,1.32,-1.00,19.00,-1,34.00,1.30,1,0,0,0,0,40.72,1,0,1,,
25050,131,0,0,131,0,-1348,0,1,1,1,2.00,0.20,8.00,0,0.00,0.00,0.00,95.72,,98.40,11.19,-8.10,49.08,-69.00,-48.00,-220.00,122.00,144.00,50.00,5.40,1.32,-1.00,19.00,-1,33.00,1.30,1,0,0,0,0,19.69,1,0,1,,
26050,91,0,0,91,1,91,25800,0,1,1,2.00,0.20,8.00,0,0.00,0.00,0.00,96.18,,98.09,11.21,-8.87,50.95,-69.00,-48.00,-220.00,122.00,144.00,50.00,5.40,1.32,-1.00,19.00,-1,33.00,1.30,1,0,0,0,0,19.69,1,0,1,,
27051,111,0,0,111,2,1591,0,0,1,1,2.00,0.20,8.00,0,0.00,0.00,0.00,96.25,,96.91,10.61,-7.84,48.86,-69.00,-48.00,-220.00,122.00,144.00,50.00,5.40,1.32,-1.00,19.00,-1,34.00,1.30,1,0,0,0,0,19.69,1,0,1,,
28050,163,0,0,163,2,1591,0,1,1,1,2.00,0.20,8.00,0,0.00,0.00,0.00,96.27,,96.74,10.26,-8.36,51.40,-69.00,-48.00,-220.00,122.00,144.00,50.00,5.40,1.32,-1.00,19.00,-1,35.00,1.30,1,0,0,0,0,19.69,1,0,1,,
29050,213,0,0,213,2,1591,0,1,1,1,2.00,0.20,8.00,0,0.00,0.00,0.00,96.60,,95.84,11.53,-8.36,48.23,-69.00,-48.00,-220.00,122.00,144.00,50.00,5.40,1.32,-1.00,19.00,-1,34.00,1.40,1,0,0,0,0,19.69,1,0,1,,
30050,262,0,0,262,2,1591,0,1,1,1,2.00,0.20,8.00,0,0.00,0.00,0.00,96.75,,98.35,11.86,-9.14,50.73,-69.00,-48.00,-220.00,122.00,144.00,50.00,5.40,1.32,-1.00,19.00,-1,33.00,1.40,1,0,0,0,0,89.00,1,0,1,,
31069,316,0,0,316,2,1591,0,1,1,1,2.00,0.20,8.00,0,0.00,0.00,0.00,97.06,,98.29,10.43,-7.59,23.69,-69.00,-48.00,-220.00,122.00,144.00,50.00,5.40,1.32,-1.00,19.00,-1,34.00,1.40,1,0,0,0,0,89.00,1,0,1,,
32050,366,0,0,366,2,1591,0,1,1,1,2.00,0.20,8.00,0,0.00,0.00,0.00,96.99,,95.71,10.24,-8.06,49.48,-69.00,-48.00,-220.00,122.00,144.00,50.00,5.40,1.32,-1.00,19.00,-1,33.00,1.30,1,0,0,0,0,89.00,1,0,1,,
33056,419,0,0,419,2,1591,0,1,1,1,2.00,0.20,8.00,0,0.00,0.00,0.00,97.23,,99.01,11.13,-8.13,146.11,-69.00,-48.00,-220.00,122.00,144.00,50.00,5.40,1.32,-1.00,19.00,-1,33.00,1.30,1,0,0,0,0,12.16,1,0,1,,
34050,465,0,0,465,2,1591,0,1,1,1,2.00,0.20,8.00,0,0.00,0.00,0.00,97.44,,97.33,10.64,-7.51,48.23,-69.00,-48.00,-220.00,122.00,144.00,50.00,5.40,1.32,-1.00,19.00,-1,32.00,1.30,1,0,0,0,0,12.16,1,0,1,,
35050,514,0,0,514,2,1591,0,1,1,1,2.00,0.20,8.00,0,0.00,0.00,0.00,97.34,,96.73,10.55,-7.15,90.38,-69.00,-48.00,-220.00,122.00,144.00,50.00,5.30,1.32,-1.00,19.00,-1,32.00,1.20,1,0,0,0,0,89.21,1,0,1,,
36050,561,0,0,561,2,1591,0,1,1,1,2.00,0.20,8.00,0,0.00,0.00,0.00,97.32,,95.41,11.31,-8.68,48.83,-69.00,-48.00,-220.00,122.00,144.00,50.00,5.30,1.32,-1.00,21.00,-1,33.00,1.20,1,0,0,0,0,89.21,1,0,1,,
37050,240,0,0,240,1,240,36908,1,0,1,2.00,0.20,8.00,0,0.00,0.00,0.00,97.32,,98.55,11.64,-8.82,51.76,-69.00,-48.00,-220.00,122.00,144.00,50.00,5.30,1.32,-1.00,21.00,-1,32.00,1.10,1,0,0,0,0,89.21,1,0,1,,
38050,240,0,0,240,1,240,36908,1,0,1,2.00,0.20,8.00,0,0.00,0.00,0.00,97.50,,99.16,11.46,-8.23,49.41,-69.00,-48.00,-220.00,122.00,144.00,50.00,5.30,1.32,-1.00,21.00,-1,32.00,1.10,1,0,0,0,0,89.21,1,0,1,,
39050,236,0,0,236,0,0,0,1,0,1,2.00,0.20,8.00,0,0.00,0.00,0.00,97.62,,96.49,12.34,-8.71,51.07,-69.00,-48.00,-220.00,122.00,144.00,50.00,5.30,1.32,-1.00,21.00,-1,33.00,1.10,1,0,0,0,0,89.21,1,0,1,,
40050,189,0,0,189,0,0,0,1,1,1,2.00,0.20,8.00,0,0.00,0.00,0.00,97.64,,97.79,11.91,-8.42,51.37,-69.00,-48.00,-220.00,122.00,144.00,50.00,5.30,1.32,-1.00,21.00,-1,33.00,1.10,1,0,0,0,0,88.21,1,0,1,,
41050,142,0,0,142,0,0,0,1,1,1,2.00,0.20,8.00,0,0.00,0.00,0.00,97.68,,97.23,12.02,-8.84,49.57,-69.00,-48.00,-220.00,122.00,144.00,50.00,5.30,1.32,-1.00,19.00,-1,34.00,1.10,1,0,0,0,0,12.16,1,0,1,,
42070,97,0,0,97,0,0,0,1,1,1,2.00,0.20,8.00,0,0.00,0.00,0.00,97.66,,97.82,11.85,-8.43,23.93,-69.00,-48.00,-220.00,122.00,144.00,50.00,5.30,1.32,-1.00,19.00,-1,34.00,1.10,1,0,0,0,0,12.16,1,0,1,,
43051,50,0,0,50,0,0,0,1,1,1,2.00,0.20,8.00,0,0.00,0.00,0.00,97.62,,99.51,10.53,-9.09,48.35,-69.00,-48.00,-220.00,122.00,144.00,50.00,5.30,1.32,-1.00,19.00,-1,35.00,1.10,1,0,0,0,0,87.48,1,0,1,,
44050,1,0,0,1,1,1,44050,1,1,1,2.00,0.20,8.00,0,0.00,0.00,0.00,97.98,,97.73,10.63,-7.90,23.59,-69.00,-48.00,-220.00,122.00,144.00,50.00,5.30,1.32,-1.00,21.00,-1,34.00,1.10,1,0,0,0,0,87.48,1,0,1,,
45050,0,0,0,0,1,0,44050,1,1,1,2.00,0.20,8.00,0,0.00,0.00,0.00,97.92,,97.90,8.97,-7.79,48.89,-69.00,-48.00,-220.00,122.00,144.00,50.00,5.30,1.32,-1.00,19.00,-1,33.00,1.40,1,0,0,0,0,87.48,1,0,1,,
46050,0,0,0,0,1,0,44050,1,1,1,2.00,0.20,8.00,0,0.00,0.00,0.00,97.85,,98.45,9.49,-6.46,99.17,-69.00,-48.00,-220.00,122.00,144.00,50.00,5.30,1.32,-1.00,19.00,-1,34.00,1.40,1,0,0,0,0,15.21,1,0,1,,
47050,0,0,0,0,1,0,44050,1,1,1,2.00,0.20,8.00,0,0.00,0.00,0.00,97.69,,97.46,9.39,-7.65,49.35,-69.00,-48.00,-220.00,122.00,144.00,50.00,5.30,1.32,-1.00,19.00,-1,34.00,1.40,1,0,0,0,0,87.51,1,0,1,,
48050,0,0,0,0,1,0,44050,1,1,1,2.00,0.20,8.00,0,0.00,0.00,0.00,97.65,,97.56,11.40,-8.87,48.87,-69.00,-48.00,-220.00,122.00,144.00,50.00,5.40,1.32,-1.00,21.00,-1,33.00,1.40,1,0,0,0,0,87.11,1,0,1,,
49050,0,0,0,0,1,0,44050,1,1,1,2.00,0.20,8.00,0,0.00,0.00,0.00,97.66,,99.33,10.95,-8.40,51.23,-69.00,-48.00,-220.00,122.00,144.00,50.00,5.40,1.32,-1.00,19.00,-1,33.00,1.40,1,0,0,0,0,13.69,1,0,1,,
50050,0,0,0,0,1,0,44050,1,1,1,2.00,0.20,8.00,0,0.00,0.00,0.00,97.75,,97.69,10.94,-7.83,48.77,-69.00,-48.00,-220.00,122.00,144.00,50.00,5.40,1.32,-1.00,19.00,-1,34.00,1.30,1,0,0,0,0,13.69,1,0,1,,
51050,0,0,0,0,1,0,44050,1,1,1,2.00,0.20,8.00,0,0.00,0.00,0.00,97.85,,97.54,11.33,-8.66,51.49,-69.00,-48.00,-220.00,122.00,144.00,50.00,5.40,1.32,-1.00,21.00,-1,34.00,1.30,1,0,0,0,0,13.69,1,0,1,,
52050,0,0,0,0,1,0,44050,1,1,1,2.00,0.20,8.00,0,0.00,0.00,0.00,97.86,,97.70,11.38,-8.42,48.96,-69.00,-48.00,-220.00,122.00,144.00,50.00,5.40,1.32,-1.00,21.00,-1,34.00,1.30,1,0,0,0,0,9.17,1,0,1,,
53069,0,0,0,0,1,0,44050,1,1,1,2.00,0.20,8.00,0,0.00,0.00,0.00,97.92,,96.85,11.55,-8.05,23.93,-69.00,-48.00,-220.00,122.00,144.00,50.00,5.40,1.32,-1.00,19.00,-1,35.00,1.20,1,0,0,0,0,9.17,1,0,1,,
54050,0,0,0,0,1,0,44050,1,1,1,2.00,0.20,8.00,0,0.00,0.00,0.00,97.68,,97.65,11.16,-8.57,49.15,-69.00,-48.00,-220.00,122.00,144.00,50.00,5.40,1.32,-1.00,19.00,-1,34.00,1.20,1,0,0,0,0,9.17,1,0,1,,
55050,0,0,0,0,1,0,44050,1,1,1,2.00,0.20,8.00,0,0.00,0.00,0.00,97.51,,98.18,12.33,-7.91,23.51,-69.00,-48.00,-220.00,122.00,144.00,50.00,5.40,1.32,-1.00,19.00,-1,34.00,1.20,1,0,0,0,0,9.17,1,0,1,,
56050,0,0,0,0,1,0,44050,1,1,1,2.00,0.20,8.00,0,0.00,0.00,0.00,97.39,,97.07,11.38,-8.62,52.09,-69.00,-48.00,-220.00,122.00,144.00,50.00,5.40,1.32,-1.00,19.00,-1,34.00,1.10,1,0,0,0,0,9.14,1,0,1,,
57050,0,0,0,0,1,0,44050,1,1,1,2.00,0.20,8.00,0,0.00,0.00,0.00,97.36,,97.35,11.49,-7.63,98.04,-69.00,-48.00,-220.00,122.00,144.00,50.00,5.40,1.32,-1.00,19.00,-1,35.00,1.10,1,0,0,0,0,9.14,1,0,1,,
58050,0,0,0,0,1,0,44050,1,1,1,2.00,0.20,8.00,0,0.00,0.00,0.00,97.36,,97.48,10.55,-8.35,50.75,-69.00,-48.00,-220.00,122.00,144.00,50.00,5.40,1.32,-1.00,21.00,-1,34.00,1.10,1,0,0,0,0,86.32,1,0,1,,
59051,0,0,0,0,1,0,44050,1,1,1,2.00,0.20,8.00,0,0.00,0.00,0.00,97.64,,100.17,10.95,-7.67,48.98,-69.00,-48.00,-220.00,122.00,144.00,50.00,5.40,1.32,-1.00,19.00,-1,34.00,1.00,1,0,0,0,0,86.32,1,0,1,,
60050,0,0,0,0,1,0,44050,1,1,1,2.00,0.20,8.00,0,0.00,0.00,0.00,97.54,,97.29,10.65,-8.63,51.40,-69.00,-48.00,-220.00,122.00,144.00,50.00,5.40,1.32,-1.00,19.00,-1,35.00,1.00,1,0,0,0,0,10.67,1,0,1,,
61050,0,0,0,0,1,0,44050,1,1,1,2.00,0.20,8.00,0,0.00,0.00,0.00,97.50,,96.67,10.75,-8.44,48.85,-69.00,-48.00,-220.00,122.00,144.00,50.00,5.40,1.32,-1.00,19.00,-1,33.00,1.10,1,0,0,0,0,10.67,1,0,1,,
62050,0,0,0,0,1,0,44050,1,1,1,2.00,0.20,8.00,0,0.00,0.00,0.00,97.17,,96.89,11.39,-8.75,51.27,-69.00,-48.00,-220.00,122.00,144.00,50.00,5.40,1.32,-1.00,19.00,-1,31.00,1.10,1,0,0,0,0,85.89,1,0,1,,
63050,0,0,0,0,1,0,44050,1,1,1,2.00,0.20,8.00,0,0.00,0.00,0.00,97.30,,97.64,11.55,-8.65,49.47,-69.00,-48.00,-220.00,122.00,144.00,50.00,5.40,1.32,-1.00,19.00,-1,30.00,1.10,1,0,0,0,0,37.70,1,0,1,,
64070,0,0,0,0,1,0,44050,1,1,1,2.00,0.20,8.00,0,0.00,0.00,0.00,97.50,,97.40,11.08,-7.74,23.21,-69.00,-48.00,-220.00,122.00,144.00,50.00,5.40,1.32,-1.00,19.00,-1,31.00,1.10,1,0,0,0,0,37.70,1,0,1,,
65050,0,0,0,0,1,0,44050,1,1,1,2.00,0.20,8.00,0,0.00,0.00,0.00,97.25,,95.02,10.40,-8.23,50.68,-69.00,-48.00,-220.00,122.00,144.00,50.00,5.30,1.32,-1.00,19.00,-1,32.00,1.10,1,0,0,0,0,37.70,1,0,1,,
66050,0,0,0,0,1,0,44050,1,1,1,2.00,0.20,8.00,0,0.00,0.00,0.00,97.26,,97.37,10.57,-8.61,23.81,-69.00,-48.00,-220.00,122.00,144.00,50.00,5.30,1.32,-1.00,19.00,-1,33.00,1.10,1,0,0,0,0,19.69,1,0,1,,
67050,0,0,0,0,1,0,44050,1,1,1,2.00,0.20,8.00,0,0.00,0.00,0.00,97.33,,99.75,10.51,-8.08,52.05,-69.00,-48.00,-220.00,122.00,144.00,50.00,5.30,1.32,-1.00,19.00,-1,32.00,1.20,1,0,0,0,0,85.16,1,0,1,,
68050,0,0,0,0,1,0,44050,1,1,1,2.00,0.20,8.00,0,0.00,0.00,0.00,97.58,,97.32,10.14,-8.37,104.56,-69.00,-48.00,-220.00,122.00,144.00,50.00,5.30,1.32,-1.00,19.00,-1,32.00,1.20,1,0,0,0,0,7.68,1,0,1,,
69050,0,0,0,0,1,0,44050,1,1,1,2.00,0.20,8.00,0,0.00,0.00,0.00,97.56,,97.04,9.44,-7.59,51.90,-69.00,-48.00,-220.00,122.00,144.00,50.00,5.30,1.32,-1.00,21.00,-1,31.00,1.20,1,0,0,0,0,7.68,1,0,1,,
70050,0,0,0,0,1,0,44050,1,1,1,2.00,0.20,8.00,0,0.00,0.00,0.00,97.48,,97.62,10.34,-7.26,48.73,-69.00,-48.00,-220.00,122.00,144.00,50.00,5.30,1.32,-1.00,19.00,-1,30.00,1.20,1,0,0,0,0,84.95,1,0,1,,
71050,0,0,0,0,1,0,44050,1,1,1,2.00,0.20,8.00,0,0.00,0.00,0.00,97.43,,95.45,10.38,-7.78,51.39,-69.00,-48.00,-220.00,122.00,144.00,50.00,5.30,1.32,-1.00,19.00,-1,30.00,1.20,1,0,0,0,0,8.53,1,0,1,,
72050,0,0,0,0,1,0,44050,1,1,1,2.00,0.20,8.00,0,0.00,0.00,0.00,97.29,,96.55,10.51,-7.78,52.05,-69.00,-48.00,-220.00,122.00,144.00,50.00,5.30,1.32,-1.00,21.00,-1,30.00,1.10,1,0,0,0,0,84.95,1,0,1,,
73050,0,0,0,0,1,0,44050,1,1,1,2.00,0.20,8.00,0,0.00,0.00,0.00,97.17,,98.18,10.47,-7.84,48.88,-69.00,-48.00,-220.00,122.00,144.00,50.00,5.30,1.32,-1.00,19.00,-1,30.00,1.10,1,0,0,0,0,40.72,1,0,1,,
74050,0,0,0,0,1,0,44050,1,1,1,2.00,0.20,8.00,0,0.00,0.00,0.00,97.24,,96.99,11.03,-8.06,52.08,-69.00,-48.00,-220.00,122.00,144.00,50.00,5.20,1.32,-1.00,21.00,-1,30.00,1.10,1,0,0,0,0,40.72,1,0,1,,
75070,0,0,0,0,1,0,44050,1,1,1,2.00,0.20,8.00,0,0.00,0.00,0.00,97.02,,95.48,11.67,-8.25,23.21,-69.00,-48.00,-220.00,122.00,144.00,50.00,5.20,1.32,-1.00,19.00,-1,30.00,1.10,1,0,0,0,0,19.69,1,0,1,,
76050,0,0,0,0,1,0,44050,1,1,1,2.00,0.20,8.00,0,0.00,0.00,0.00,96.57,,94.08,10.94,-7.91,51.57,-69.00,-48.00,-220.00,122.00,144.00,50.00,5.20,1.32,-1.00,19.00,-1,31.00,1.10,1,0,0,0,0,19.69,1,0,1,,
77070,0,0,0,0,1,0,44050,1,1,1,2.00,0.20,8.00,0,0.00,0.00,0.00,96.40,,96.83,11.34,-7.39,23.21,-69.00,-48.00,-220.00,122.00,144.00,50.00,5.20,45.20,45.20,19.00,-1,31.00,1.10,1,0,0,0,0,19.69,1,0,1,,
78050,0,0,0,0,1,0,44050,1,1,1,2.00,0.20,8.00,0,0.00,0.00,0.00,96.38,,97.29,11.26,-8.43,51.31,-69.00,-48.00,-220.00,122.00,144.00,50.00,5.10,45.20,45.20,19.00,-1,32.00,1.10,1,0,0,0,0,10.67,1,0,1,,
79057,0,0,0,0,1,0,44050,1,1,1,2.00,0.20,8.00,0,0.00,0.00,0.00,96.60,,97.23,10.61,-8.06,129.33,-69.00,-48.00,-220.00,122.00,144.00,50.00,5.10,45.20,45.20,19.00,-1,32.00,1.10,1,0,0,0,0,10.67,1,0,1,,
80050,0,0,0,0,1,0,44050,1,1,1,2.00,0.20,8.00,0,0.00,0.00,0.00,96.60,,96.86,10.87,-7.99,49.35,-69.00,-48.00,-220.00,122.00,144.00,50.00,5.10,45.20,45.20,19.00,-1,33.00,1.10,1,0,0,0,0,10.67,1,0,1,,
81050,0,0,0,0,1,0,44050,1,1,1,2.00,0.20,8.00,0,0.00,0.00,0.00,96.43,,96.84,10.30,-7.30,105.57,-69.00,-48.00,-220.00,122.00,144.00,50.00,5.10,45.20,45.20,19.00,-1,33.00,1.10,1,0,0,0,0,10.67,1,0,1,,
82050,0,0,0,0,1,0,44050,1,1,1,2.00,0.20,8.00,0,0.00,0.00,0.00,96.44,,94.95,11.48,-8.63,48.89,-69.00,-48.00,-220.00,122.00,144.00,50.00,5.10,45.20,45.20,21.00,-1,32.00,1.10,1,0,0,0,0,10.67,1,0,1,,
83050,0,0,0,0,1,0,44050,1,1,1,2.00,0.20,8.00,2,95.00,-2.64,-1.75,96.41,,97.83,10.55,-8.65,51.66,-69.00,-48.00,-220.00,122.00,144.00,50.00,5.00,45.20,45.20,19.00,-1,32.00,1.00,1,0,0,0,0,10.67,1,0,1,,
84050,0,0,0,0,1,0,44050,1,1,1,2.00,0.20,8.00,2,95.00,-0.89,-2.47,96.43,,95.78,11.41,-8.65,49.29,-69.00,-48.00,-220.00,122.00,144.00,50.00,5.00,45.20,45.20,19.00,-1,33.00,1.00,1,0,0,0,0,10.67,1,0,1,,
85050,0,0,0,0,1,0,44050,1,1,1,2.00,0.20,8.00,2,95.00,1.64,-0.78,96.15,,92.69,11.33,-8.04,50.67,-69.00,-48.00,-220.00,122.00,144.00,50.00,5.00,45.20,45.20,19.00,-1,33.00,1.00,1,0,0,0,0,10.67,1,0,1,,
86050,6,0,0,6,1,6,20271,1,1,1,2.00,0.20,8.00,2,95.00,2.17,1.18,95.63,,92.38,11.35,-8.92,48.27,-69.00,-48.00,-220.00,122.00,144.00,50.00,5.00,45.20,45.20,19.00,-1,34.00,1.00,1,0,0,0,0,10.67,1,0,1,,
87050,2,0,0,2,1,2,21271,1,1,1,2.00,0.20,8.00,2,95.00,1.51,2.19,95.39,,93.58,10.81,-8.23,50.70,-69.00,-48.00,-220.00,122.00,144.00,50.00,5.00,45.20,45.20,19.00,-1,34.00,1.00,1,0,0,0,0,84.40,1,0,1,,
88070,2,0,0,2,1,2,21271,1,1,1,2.00,0.20,8.00,2,95.00,1.82,3.80,95.11,,93.13,10.66,-8.11,23.65,-69.00,-48.00,-220.00,122.00,144.00,50.00,5.00,45.20,45.20,19.00,-1,35.00,1.00,1,0,0,0,0,40.72,1,0,1,,
89050,2,0,0,2,2,8,0,1,1,1,2.00,0.20,8.00,2,95.00,2.46,6.10,94.63,,92.58,11.13,-9.15,48.82,-69.00,-48.00,-220.00,122.00,144.00,50.00,5.00,45.20,45.20,19.00,-1,36.00,1.00,1,0,0,0,0,40.72,1,0,1,,
90050,8,0,0,8,1,8,23714,1,1,1,2.00,0.20,8.00,2,95.00,2.03,8.50,94.31,,92.66,12.38,-8.56,23.57,-69.00,-48.00,-220.00,122.00,144.00,50.00,5.00,45.20,45.20,19.00,-1,36.00,1.00,1,0,0,0,0,19.69,1,0,1,,
91051,8,0,0,8,1,8,23714,1,1,1,2.00,0.20,8.00,2,95.00,2.81,10.77,94.02,,92.32,11.10,-8.72,48.85,-69.00,-48.00,-220.00,122.00,144.00,50.00,5.10,45.20,45.20,19.00,-1,36.00,1.80,1,0,0,0,0,19.69,1,0,1,,
92050,8,0,0,8,1,8,23714,1,1,1,2.00,0.20,8.00,2,95.00,3.26,14.30,93.53,,91.50,11.63,-8.22,113.58,-69.00,-48.00,-220.00,122.00,144.00,50.00,5.10,45.20,45.20,19.00,-1,37.00,1.80,1,0,0,0,0,10.70,1,0,1,,
93050,14,0,0,14,1,9,27214,1,1,1,2.00,0.20,8.00,2,95.00,2.80,17.88,93.15,,92.22,12.47,-9.43,48.28,-69.00,-48.00,-220.00,122.00,144.00,50.00,5.10,45.20,45.20,19.00,-1,37.00,1.80,1,0,0,0,0,10.70,1,0,1,,
94050,10,0,0,10,0,4,0,1,1,1,2.00,0.20,8.00,2,95.00,0.26,18.96,93.13,,93.90,13.29,-9.03,50.91,-69.00,-48.00,-220.00,122.00,144.00,50.00,5.10,45.20,45.20,21.00,-1,37.00,1.80,1,0,0,0,0,84.46,1,0,1,,
95050,10,0,0,10,1,10,29164,1,1,1,2.00,0.20,8.00,2,95.00,4.00,22.62,92.87,,91.00,12.51,-9.38,48.69,-69.00,-48.00,-220.00,122.00,144.00,50.00,5.20,45.20,45.20,19.00,-1,38.00,1.80,1,0,0,0,0,37.80,1,0,1,,
96050,21,0,0,21,1,21,30464,1,1,1,2.00,0.20,8.00,2,95.00,4.59,28.71,92.32,,90.45,12.28,-9.62,48.83,-69.00,-48.00,-220.00,122.00,144.00,50.00,5.20,45.20,45.20,19.00,-1,38.00,1.00,1,0,0,0,0,21.15,1,0,1,,
97050,16,0,0,16,1,16,31371,1,1,1,2.00,0.20,8.00,2,95.00,4.51,33.05,92.04,,90.46,12.44,-9.14,51.41,-69.00,-48.00,-220.00,122.00,144.00,50.00,5.20,45.20,45.20,21.00,-1,37.00,1.00,1,0,0,0,0,21.15,1,0,1,,
98050,11,0,0,11,1,11,32314,1,1,1,2.00,0.20,8.00,2,95.00,2.75,35.31,92.06,,92.17,12.30,-8.78,49.61,-69.00,-48.00,-220.00,122.00,144.00,50.00,5.20,45.20,45.20,19.00,-1,37.00,1.00,1,0,0,0,0,15.18,1,0,1,,
99069,11,0,0,11,1,11,32314,1,1,1,2.00,0.20,8.00,2,95.00,1.60,37.41,92.08,,92.66,12.53,-9.30,24.07,-69.00,-48.00,-220.00,122.00,144.00,50.00,5.20,45.20,45.20,19.00,-1,36.00,1.10,1,0,0,0,0,84.19,1,0,1,,
100050,11,0,0,11,1,11,32314,1,1,1,2.00,0.20,8.00,2,95.00,1.01,39.16,92.20,,93.82,12.20,-8.34,48.24,-69.00,-48.00,-220.00,122.00,144.00,50.00,5.30,45.20,45.20,19.00,-1,36.00,1.10,1,0,0,0,0,0.00,1,0,1,,
101050,11,0,0,11,1,11,32314,1,1,1,2.00,0.20,8.00,2,95.00,2.99,42.45,92.26,,92.33,11.51,-9.01,23.55,-69.00,-48.00,-220.00,122.00,144.00,50.00,5.30,45.20,45.20,21.00,-1,36.00,1.20,1,0,0,0,0,84.19,1,0,1,,
102050,11,0,0,11,1,11,32314,1,1,1,2.00,0.20,8.00,2,95.00,2.07,44.77,92.31,,93.17,11.21,-8.16,49.40,-69.00,-48.00,-220.00,122.00,144.00,50.00,5.30,45.20,45.20,21.00,-1,35.00,1.20,1,0,0,0,0,84.19,1,0,1,,
103050,11,0,0,11,1,11,32314,1,1,1,2.00,0.20,8.00,2,95.00,1.00,45.75,92.47,,94.06,10.56,-7.97,104.73,-69.00,-48.00,-220.00,122.00,144.00,50.00,5.30,45.20,45.20,21.00,-1,35.00,1.20,1,0,0,0,0,84.19,1,0,1,,
104050,11,0,0,11,1,10,32314,1,1,1,2.00,0.20,8.00,2,95.00,-0.47,45.96,92.81,,95.44,11.52,-8.96,51.42,-69.00,-48.00,-220.00,122.00,144.00,50.00,5.40,45.20,45.20,21.00,-1,36.00,1.20,1,0,0,0,0,84.19,1,0,1,,
105050,11,0,0,11,1,11,32314,1,1,1,2.00,0.20,8.00,2,95.00,2.52,47.92,92.95,,92.44,12.57,-8.60,48.59,-69.00,-48.00,-220.00,122.00,144.00,50.00,5.40,45.20,45.20,19.00,-1,36.00,1.20,1,0,0,0,0,84.19,1,0,1,,
106050,11,0,0,11,1,11,32314,1,1,1,2.00,0.20,8.00,2,95.00,1.08,49.82,92.96,,93.55,12.53,-9.19,51.28,-69.00,-48.00,-220.00,122.00,144.00,50.00,5.40,45.20,45.20,19.00,-1,35.00,1.20,1,0,0,0,0,83.64,1,0,1,,
107051,11,0,0,11,1,11,32314,1,1,1,2.00,0.20,8.00,2,95.00,0.02,50.75,93.25,,94.97,11.88,-9.47,49.47,-69.00,-48.00,-220.00,122.00,144.00,50.00,5.40,45.20,45.20,21.00,-1,36.00,1.20,1,0,0,0,0,83.64,1,0,1,,
108050,11,0,0,11,1,11,32314,1,1,1,2.00,0.20,8.00,2,95.00,1.22,52.30,93.32,,93.93,11.99,-9.06,51.94,-69.00,-48.00,-220.00,122.00,144.00,50.00,5.40,45.20,45.20,21.00,-1,36.00,1.20,1,0,0,0,0,83.64,1,0,1,,
109050,11,0,0,11,1,11,32314,1,1,1,2.00,0.20,8.00,2,95.00,0.23,52.23,93.67,,93.36,11.74,-9.45,49.40,-69.00,-48.00,-220.00,122.00,144.00,50.00,5.40,45.20,45.20,21.00,-1,35.00,1.30,1,0,0,0,0,83.76,1,0,1,,
110069,11,0,0,11,1,11,32314,1,1,1,2.00,0.20,8.00,2,95.00,0.70,53.58,93.64,,95.29,10.31,-8.04,24.09,-69.00,-48.00,-220.00,122.00,144.00,50.00,5.40,45.20,45.20,19.00,-1,35.00,1.30,1,0,0,0,0,37.70,1,0,1,,
111050,11,0,0,11,1,11,32314,1,1,1,2.00,0.20,8.00,2,95.00,-1.38,52.96,93.92,,96.88,11.76,-8.75,49.00,-69.00,-48.00,-220.00,122.00,144.00,50.00,5.40,45.20,45.20,19.00,-1,35.00,1.30,1,0,0,0,0,21.21,1,0,1,,
112050,11,0,0,11,1,11,32314,1,1,1,2.00,0.20,8.00,2,95.00,-0.08,53.47,94.05,,95.19,11.68,-7.34,23.59,-69.00,-48.00,-220.00,122.00,144.00,50.00,5.40,45.20,45.20,19.00,-1,36.00,1.40,1,0,0,0,0,21.21,1,0,1,,
113050,11,0,0,11,1,15,32314,1,1,1,2.00,0.20,8.00,2,95.00,2.09,55.79,93.87,,93.27,10.96,-8.57,51.39,-69.00,-48.00,-220.00,122.00,144.00,50.00,5.50,45.20,45.20,19.00,-1,36.00,1.40,1,0,0,0,0,21.21,1,0,1,,
114050,11,0,0,11,1,11,32314,1,1,1,2.00,0.20,8.00,2,95.00,-0.85,54.96,94.11,,95.95,11.01,-8.87,110.42,-69.00,-48.00,-220.00,122.00,144.00,50.00,5.50,45.20,45.20,19.00,-1,36.00,1.40,1,0,0,0,0,13.69,1,0,1,,
115050,11,0,0,11,1,11,32314,1,1,1,2.00,0.20,8.00,2,95.00,-0.19,54.13,94.46,,94.91,11.97,-8.76,51.42,-69.00,-48.00,-220.00,122.00,144.00,50.00,5.50,45.20,45.20,21.00,-1,35.00,1.40,1,0,0,0,0,13.69,1,0,1,,
116050,11,0,0,11,1,11,32314,1,1,1,2.00,0.20,8.00,2,95.00,0.98,55.49,94.31,,94.09,11.19,-7.96,48.93,-69.00,-48.00,-220.00,122.00,144.00,50.00,5.50,45.20,45.20,19.00,-1,35.00,1.40,1,0,0,0,0,13.69,1,0,1,,
117050,11,0,0,11,1,11,32314,1,1,1,2.00,0.20,8.00,2,95.00,0.62,56.45,94.22,,94.64,11.56,-8.48,50.65,-69.00,-48.00,-220.00,122.00,144.00,50.00,5.50,45.20,45.20,19.00,-1,35.00,1.40,1,0,0,0,0,13.69,1,0,1,,
118050,11,0,0,11,1,11,32314,1,1,1,2.00,0.20,8.00,2,95.00,-0.07,57.25,94.25,,95.48,10.55,-8.55,48.15,-69.00,-48.00,-220.00,122.00,144.00,50.00,5.50,45.20,45.20,21.00,-1,34.00,1.40,1,0,0,0,0,9.14,1,0,1,,
119050,11,0,0,11,1,11,32314,1,1,1,2.00,0.20,8.00,2,95.00,0.65,58.18,94.29,,94.28,11.94,-8.98,50.66,-69.00,-48.00,-220.00,122.00,144.00,50.00,5.50,45.20,45.20,21.00,-1,33.00,1.40,1,0,0,0,0,9.14,1,0,1,,
120050,11,0,0,11,1,11,32314,1,1,1,2.00,0.20,8.00,2,95.00,-2.07,56.89,94.47,,96.98,11.23,-8.83,52.08,-69.00,-48.00,-220.00,122.00,144.00,50.00,5.50,45.20,45.20,20.00,-1,33.00,1.30,1,0,0,0,0,9.14,1,0,1,,
121070,11,0,0,11,1,11,32314,1,1,1,2.00,0.20,8.00,2,95.00,-1.54,55.58,94.90,,96.73,11.64,-8.81,23.51,-69.00,-48.00,-220.00,122.00,144.00,50.00,5.50,45.20,45.20,21.00,-1,32.00,1.30,1,0,0,0,0,9.14,1,0,1,,
122050,11,0,0,11,1,11,32314,1,1,1,2.00,0.20,8.00,2,95.00,-0.03,54.35,95.20,,95.09,10.48,-8.33,51.48,-69.00,-48.00,-220.00,122.00,144.00,50.00,5.50,45.20,45.20,21.00,-1,0.00,1.30,1,0,0,0,0,82.36,1,0,1,,
123057,11,0,0,11,1,11,32314,1,1,1,2.00,0.20,8.00,2,95.00,-1.19,52.98,95.43,,96.10,10.25,-7.18,133.19,-69.00,-48.00,-220.00,122.00,144.00,50.00,5.50,45.20,45.20,21.00,-1,34.00,1.20,1,0,0,0,0,82.36,1,0,1,,
124050,11,0,0,11,0,5,0,1,1,1,2.00,0.20,8.00,2,95.00,-2.76,51.09,95.62,,97.91,12.04,-8.90,52.40,-69.00,-48.00,-220.00,122.00,144.00,50.00,5.50,45.20,45.20,19.00,-1,33.00,1.20,1,0,0,0,0,82.36,1,0,1,,
125050,10,0,0,10,1,10,59164,1,1,1,2.00,0.20,8.00,2,95.00,-0.32,51.16,95.61,,95.91,11.70,-8.77,107.07,-69.00,-48.00,-220.00,122.00,144.00,50.00,5.50,45.20,45.20,19.00,-1,33.00,1.20,1,0,0,0,0,82.75,1,0,1,,
126050,10,0,0,10,1,10,59164,1,1,1,2.00,0.20,8.00,2,95.00,-0.44,50.89,95.55,,95.92,9.78,-7.46,51.87,-69.00,-48.00,-220.00,122.00,144.00,50.00,5.50,45.20,45.20,21.00,-1,32.00,1.20,1,0,0,0,0,82.75,1,0,1,,
127050,4,0,0,4,1,4,61364,1,1,1,2.00,0.20,8.00,2,95.00,-0.64,48.86,95.78,,95.83,9.71,-7.90,49.69,-69.00,-48.00,-220.00,122.00,144.00,50.00,5.50,45.20,45.20,21.00,-1,0.00,1.20,1,0,0,0,0,19.72,1,0,1,,
128050,4,0,0,4,1,5,61364,1,1,1,2.00,0.20,8.00,2,95.00,-1.44,46.73,95.95,,96.81,10.88,-7.90,48.72,-69.00,-48.00,-220.00,122.00,144.00,50.00,5.50,45.20,45.20,21.00,-1,34.00,1.20,1,0,0,0,0,82.02,1,0,1,,
129050,4,0,0,4,1,5,61364,1,1,1,2.00,0.20,8.00,2,95.00,-1.12,45.49,96.02,,95.93,11.55,-8.22,52.12,-69.00,-48.00,-220.00,122.00,144.00,50.00,5.50,45.20,45.20,19.00,-1,35.00,1.20,1,0,0,0,0,82.02,1,0,1,,
130050,4,0,0,4,1,4,61364,1,1,1,2.00,0.20,8.00,2,95.00,-1.82,44.06,96.02,,96.90,10.79,-8.74,48.89,-69.00,-48.00,-220.00,122.00,144.00,50.00,5.40,45.20,45.20,21.00,-1,34.00,1.20,1,0,0,0,0,81.93,1,0,1,,
131050,4,0,0,4,2,10,0,1,1,1,2.00,0.20,8.00,2,95.00,1.25,44.26,95.91,,93.57,10.28,-7.17,51.29,-69.00,-48.00,-220.00,122.00,144.00,50.00,5.40,45.20,45.20,19.00,-1,35.00,1.20,1,0,0,0,0,37.76,1,0,1,,
132070,11,0,0,11,1,11,178,1,1,1,2.00,0.20,8.00,2,95.00,0.49,44.10,95.72,,94.32,9.94,-8.15,23.51,-69.00,-48.00,-220.00,122.00,144.00,50.00,5.40,45.20,45.20,21.00,-1,34.00,1.20,1,0,0,0,0,37.76,1,0,1,,
133050,6,0,0,6,1,6,1778,1,1,1,2.00,0.20,8.00,2,95.00,-0.50,43.16,95.58,,96.26,9.57,-8.46,51.31,-69.00,-48.00,-220.00,122.00,144.00,50.00,5.40,45.20,45.20,21.00,-1,34.00,1.20,1,0,0,0,0,37.76,1,0,1,,
134056,6,0,0,6,2,15,0,1,1,1,2.00,0.20,8.00,2,95.00,2.48,44.66,95.34,,93.64,9.56,-7.94,136.69,-69.00,-48.00,-220.00,122.00,144.00,50.00,5.40,45.20,45.20,19.00,-1,33.00,1.10,1,0,0,0,0,81.75,1,0,1,,
135050,6,0,0,6,0,4,0,1,1,1,2.00,0.20,8.00,2,95.00,-2.30,42.79,95.49,,97.23,10.55,-7.67,50.70,-69.00,-48.00,-220.00,122.00,144.00,50.00,5.40,45.20,45.20,21.00,-1,33.00,1.10,1,0,0,0,0,36.30,1,0,1,,
136050,5,0,0,5,2,10,0,1,1,1,2.00,0.20,8.00,2,95.00,1.35,44.00,95.35,,94.50,9.27,-7.94,104.12,-69.00,-48.00,-220.00,122.00,144.00,50.00,5.40,45.20,45.20,21.00,-1,32.00,1.70,1,0,0,0,0,19.72,1,0,1,,
137050,11,0,0,11,0,6,0,1,1,1,2.00,0.20,8.00,2,95.00,-1.17,44.38,95.14,,96.53,10.31,-8.22,48.96,-69.00,-48.00,-220.00,122.00,144.00,50.00,5.30,45.20,45.20,19.00,-1,31.00,1.70,1,0,0,0,0,19.72,1,0,1,,
138050,7,0,0,7,1,7,6328,1,1,1,2.00,0.20,8.00,2,95.00,0.18,45.02,95.04,,94.86,10.57,-8.01,51.71,-69.00,-48.00,-220.00,122.00,144.00,50.00,5.30,45.20,45.20,19.00,-1,32.00,1.70,1,0,0,0,0,19.72,1,0,1,,
139051,15,0,0,15,1,15,7778,1,1,1,2.00,0.20,8.00,2,95.00,2.93,48.17,94.64,,91.94,10.26,-7.03,48.83,-69.00,-48.00,-220.00,122.00,144.00,50.00,5.30,45.20,45.20,19.00,-1,32.00,1.80,1,0,0,0,0,19.72,1,0,1,,
140050,15,0,0,15,1,15,7778,1,1,1,2.00,0.20,8.00,2,95.00,1.50,49.60,94.40,,93.47,10.97,-8.29,52.30,-69.00,-48.00,-220.00,122.00,144.00,50.00,5.30,45.20,45.20,19.00,-1,32.00,1.80,1,0,0,0,0,19.72,1,0,1,,
141050,11,0,0,11,1,11,9735,1,1,1,2.00,0.20,8.00,2,95.00,1.42,50.45,94.35,,93.60,11.25,-8.51,49.40,-69.00,-48.00,-220.00,122.00,144.00,50.00,5.30,45.20,45.20,21.00,-1,33.00,1.80,1,0,0,0,0,19.72,1,0,1,,
142050,11,0,0,11,1,11,9735,1,1,1,2.00,0.20,8.00,2,95.00,0.26,49.87,94.55,,93.79,11.34,-7.78,51.42,-69.00,-48.00,-220.00,122.00,144.00,50.00,5.30,45.20,45.20,19.00,-1,33.00,1.10,1,0,0,0,0,19.72,1,0,1,,
143070,11,0,0,11,1,11,9735,1,1,1,2.00,0.20,8.00,2,95.00,0.44,50.44,94.47,,94.52,10.49,-8.21,23.51,-69.00,-48.00,-220.00,122.00,144.00,50.00,5.30,45.20,45.20,20.00,-1,33.00,1.10,1,0,0,0,0,19.72,1,0,1,,
144050,11,0,0,11,1,11,9735,1,1,1,2.00,0.20,8.00,2,95.00,1.13,51.58,94.39,,93.97,10.26,-8.10,49.05,-69.00,-48.00,-220.00,122.00,144.00,50.00,5.30,45.20,45.20,19.00,-1,34.00,1.10,1,0,0,0,0,19.72,1,0,1,,
145050,11,0,0,11,1,11,9735,1,1,1,2.00,0.20,8.00,2,95.00,1.01,52.85,94.26,,94.15,10.39,-8.82,23.69,-69.00,-48.00,-220.00,122.00,144.00,50.00,5.30,45.30,45.30,20.00,-1,33.00,1.10,1,0,0,0,0,81.23,1,0,1,,
146050,11,0,0,11,1,11,9735,1,1,1,2.00,0.20,8.00,2,95.00,0.84,53.46,94.34,,93.95,10.76,-8.16,48.45,-69.00,-48.00,-220.00,122.00,144.00,50.00,5.20,45.30,45.30,19.00,-1,34.00,1.10,1,0,0,0,0,81.23,1,0,1,,
147050,11,0,0,11,2,17,0,1,1,1,2.00,0.20,8.00,2,95.00,3.52,55.42,94.31,,92.00,10.33,-7.88,23.36,-69.00,-48.00,-220.00,122.00,144.00,50.00,5.20,45.30,45.30,21.00,-1,34.00,1.00,1,0,0,0,0,12.16,1,0,1,,
148050,17,0,0,17,1,17,16197,1,1,1,2.00,0.20,8.00,2,95.00,2.26,57.98,93.93,,93.22,10.19,-8.27,49.75,-69.00,-48.00,-220.00,122.00,144.00,50.00,5.20,45.30,45.30,21.00,-1,33.00,1.00,1,0,0,0,0,81.26,1,0,1,,
149050,17,0,0,17,1,17,16197,1,1,1,2.00,0.20,8.00,2,95.00,2.09,59.56,93.92,,93.39,9.30,-8.33,104.65,-69.00,-48.00,-220.00,122.00,144.00,50.00,5.20,45.30,45.30,21.00,-1,35.00,1.00,1,0,0,0,0,18.20,1,0,1,,
150050,17,0,0,17,1,17,16197,1,1,1,2.00,0.20,8.00,2,95.00,1.23,61.78,93.78,,93.57,11.55,-7.56,48.84,-69.00,-48.00,-220.00,122.00,144.00,50.00,5.20,45.30,45.30,19.00,-1,36.00,1.00,1,0,0,0,0,18.20,1,0,1,,
151050,17,0,0,17,1,17,16197,1,1,1,2.00,0.20,8.00,2,95.00,0.81,63.51,93.59,,94.73,11.03,-8.70,51.19,-69.00,-48.00,-220.00,122.00,144.00,50.00,5.20,45.30,45.30,19.00,-1,37.00,1.00,1,0,0,0,0,18.20,1,0,1,,
152050,17,0,0,17,1,17,16197,1,1,1,2.00,0.20,8.00,2,95.00,1.66,64.81,93.75,,93.09,11.77,-8.69,51.53,-69.00,-48.00,-220.00,122.00,144.00,50.00,5.10,45.30,45.30,21.00,-1,36.00,1.00,1,0,0,0,0,18.20,1,0,1,,
153050,17,0,0,17,1,17,16197,1,1,1,2.00,0.20,8.00,2,95.00,3.55,66.70,93.78,,91.02,11.98,-8.52,48.91,-69.00,-48.00,-220.00,122.00,144.00,50.00,5.10,45.30,45.30,21.00,-1,36.00,1.00,1,0,0,0,0,18.20,1,0,1,,
154050,17,0,0,17,0,11,0,1,1,1,2.00,0.20,8.00,2,95.00,-1.04,66.96,93.69,,96.41,10.56,-8.04,51.77,-69.00,-48.00,-220.00,122.00,144.00,50.00,5.10,45.30,45.30,19.00,-1,35.00,1.00,1,0,0,0,0,18.20,1,0,1,,
155051,12,0,0,12,2,17,0,1,1,1,2.00,0.20,8.00,2,95.00,2.47,68.60,93.76,,92.76,10.50,-8.14,49.69,-69.00,-48.00,-220.00,122.00,144.00,50.00,5.10,45.30,45.30,19.00,-1,34.00,1.00,1,0,0,0,0,12.19,1,0,1,,
156069,17,0,0,17,1,17,24178,1,1,1,2.00,0.20,8.00,2,95.00,0.26,69.81,93.64,,95.57,10.69,-9.99,23.71,-69.00,-48.00,-220.00,122.00,144.00,50.00,5.10,45.30,45.30,19.00,-1,34.00,1.00,1,0,0,0,0,12.19,1,0,1,,
157050,17,0,0,17,1,17,24178,1,1,1,2.00,0.20,8.00,2,95.00,1.94,70.23,93.95,,93.12,10.61,-7.95,48.10,-69.00,-48.00,-220.00,122.00,144.00,50.00,5.10,45.30,45.30,21.00,-1,33.00,1.00,1,0,0,0,0,12.19,1,0,1,,
158050,17,0,0,17,1,17,24178,1,1,1,2.00,0.20,8.00,2,95.00,-0.04,70.40,94.12,,94.35,11.75,-7.25,23.58,-69.00,-48.00,-220.00,122.00,144.00,50.00,5.10,45.30,45.30,21.00,-1,34.00,1.10,1,0,0,0,0,12.19,1,0,1,,
159050,17,0,0,17,1,17,24178,1,1,1,2.00,0.20,8.00,2,95.00,-0.29,70.86,94.12,,95.23,10.79,-7.79,49.39,-69.00,-48.00,-220.00,122.00,144.00,50.00,5.00,45.30,45.30,21.00,-1,34.00,1.10,1,0,0,0,0,12.19,1,0,1,,
160050,17,0,0,17,0,12,0,1,1,1,2.00,0.20,8.00,2,95.00,-1.01,70.33,94.30,,95.60,11.50,-8.62,96.04,-69.00,-48.00,-220.00,122.00,144.00,50.00,5.00,45.30,45.30,21.00,-1,34.00,1.10,1,0,0,0,0,10.67,1,0,1,,
161050,13,0,0,13,1,13,29185,1,1,1,2.00,0.20,8.00,2,95.00,1.05,70.94,94.38,,93.87,10.96,-8.10,52.02,-69.00,-48.00,-220.00,122.00,144.00,50.00,5.00,45.30,45.30,19.00,-1,33.00,1.10,1,0,0,0,0,10.67,1,0,1,,
162050,13,0,0,13,1,13,29185,1,1,1,2.00,0.20,8.00,2,95.00,0.05,70.43,94.53,,94.66,11.64,-8.19,48.79,-69.00,-48.00,-220.00,122.00,144.00,50.00,5.00,45.30,45.30,19.00,-1,33.00,1.10,1,0,0,0,0,10.67,1,0,1,,
163050,13,0,0,13,1,13,29185,1,1,1,2.00,0.20,8.00,2,95.00,0.22,69.82,94.74,,94.45,11.96,-7.71,51.56,-69.00,-48.00,-220.00,122.00,144.00,50.00,5.00,45.30,45.30,19.00,-1,33.00,1.00,1,0,0,0,0,10.67,1,0,1,,
164050,13,0,0,13,1,13,29185,1,1,1,2.00,0.20,8.00,2,95.00,-0.52,68.38,94.95,,94.89,11.96,-8.08,49.06,-69.00,-48.00,-220.00,122.00,144.00,50.00,5.00,45.30,45.30,19.00,-1,34.00,1.00,1,0,0,0,0,10.70,1,0,1,,
165050,13,0,0,13,1,9,29185,1,1,1,2.00,0.20,8.00,2,95.00,-2.14,67.57,94.96,,97.54,10.53,-8.64,51.67,-69.00,-48.00,-220.00,122.00,144.00,50.00,5.00,45.30,45.30,19.00,-1,33.00,1.00,1,0,0,0,0,10.70,1,0,1,,
166050,8,0,0,8,1,8,34828,1,1,1,2.00,0.20,8.00,2,95.00,-0.69,65.52,95.34,,95.77,10.47,-7.71,48.20,-69.00,-48.00,-220.00,122.00,144.00,50.00,5.00,45.30,45.30,19.00,-1,33.00,1.00,1,0,0,0,0,80.47,1,0,1,,
167050,8,0,0,8,1,8,34828,1,1,1,2.00,0.20,8.00,2,95.00,-1.20,64.76,95.42,,96.11,10.40,-8.73,51.15,-69.00,-48.00,-220.00,122.00,144.00,50.00,5.00,45.30,45.30,19.00,-1,32.00,1.00,1,0,0,0,0,80.47,1,0,1,,
168050,8,0,0,8,1,8,34828,1,1,1,2.00,0.20,8.00,2,95.00,-0.62,64.57,95.41,,95.69,10.77,-7.92,52.00,-69.00,-48.00,-220.00,122.00,144.00,50.00,5.10,45.30,45.30,19.00,-1,33.00,1.00,1,0,0,0,0,80.47,1,0,1,,
169070,8,0,0,8,1,8,34828,1,1,1,2.00,0.20,8.00,2,95.00,-0.65,63.43,95.52,,95.55,11.39,-9.11,23.26,-69.00,-48.00,-220.00,122.00,144.00,50.00,5.10,45.30,45.30,19.00,-1,33.00,1.00,1,0,0,0,0,80.47,1,0,1,,
170050,8,0,0,8,2,15,0,1,1,1,2.00,0.20,8.00,2,95.00,1.30,64.29,95.34,,93.62,10.59,-7.65,50.85,-69.00,-48.00,-220.00,122.00,144.00,50.00,5.10,45.30,45.30,19.00,-1,32.00,1.00,1,0,0,0,0,80.47,1,0,1,,
171057,15,0,0,15,1,15,39228,1,1,1,2.00,0.20,8.00,2,95.00,0.08,65.27,95.05,,94.59,10.65,-8.84,134.12,-69.00,-48.00,-220.00,122.00,144.00,50.00,5.10,45.30,45.30,19.00,-1,33.00,1.80,1,0,0,0,0,81.14,1,0,1,,
172050,15,0,0,15,1,15,39228,1,1,1,2.00,0.20,8.00,2,95.00,-1.06,65.45,95.00,,96.08,11.20,-7.59,50.65,-69.00,-48.00,-220.00,122.00,144.00,50.00,5.10,45.30,45.30,19.00,-1,34.00,1.80,1,0,0,0,0,81.14,1,0,1,,
173050,15,0,0,15,0,9,0,1,1,1,2.00,0.20,8.00,2,95.00,-2.14,64.47,95.16,,97.16,11.07,-8.36,104.21,-69.00,-48.00,-220.00,122.00,144.00,50.00,5.10,45.30,45.30,19.00,-1,35.00,1.80,1,0,0,0,0,81.14,1,0,1,,
174050,9,0,0,9,2,14,0,1,1,1,2.00,0.20,8.00,2,95.00,1.26,64.84,95.22,,93.51,10.87,-7.98,51.40,-69.00,-48.00,-220.00,122.00,144.00,50.00,5.10,45.30,45.30,19.00,-1,35.00,1.80,1,0,0,0,0,7.68,1,0,1,,
175050,13,0,0,13,1,13,43179,1,1,1,2.00,0.20,8.00,2,95.00,1.63,66.51,94.89,,93.44,10.57,-8.49,49.36,-69.00,-48.00,-220.00,122.00,144.00,50.00,5.10,45.30,45.30,19.00,-1,36.00,1.80,1,0,0,0,0,79.95,1,0,1,,
176050,13,0,0,13,1,13,43179,1,1,1,2.00,0.20,8.00,2,95.00,-0.27,67.17,94.72,,95.54,11.31,-8.23,48.07,-69.00,-48.00,-220.00,122.00,144.00,50.00,5.20,45.30,45.30,19.00,-1,35.00,1.00,1,0,0,0,0,39.20,1,0,1,,
177050,13,0,0,13,1,13,43179,1,1,1,2.00,0.20,8.00,2,95.00,1.20,67.75,94.79,,94.00,10.59,-7.89,50.73,-69.00,-48.00,-220.00,122.00,144.00,50.00,5.20,45.30,45.30,19.00,-1,35.00,1.00,1,0,0,0,0,18.20,1,0,1,,
178050,13,0,0,13,1,17,43179,1,1,1,2.00,0.20,8.00,2,95.00,2.11,69.28,94.62,,92.82,11.14,-8.69,48.78,-69.00,-48.00,-220.00,122.00,144.00,50.00,5.20,45.30,45.30,19.00,-1,34.00,1.00,1,0,0,0,0,18.20,1,0,1,,
179050,13,0,0,13,1,13,43179,1,1,1,2.00,0.20,8.00,2,95.00,0.94,70.51,94.50,,93.63,12.01,-8.18,51.26,-69.00,-48.00,-220.00,122.00,144.00,50.00,5.20,45.30,45.30,19.00,-1,34.00,1.00,1,0,0,0,0,79.92,1,0,1,,
180070,13,0,0,13,1,13,43179,1,1,1,2.00,0.20,8.00,2,95.00,-1.26,70.12,94.55,,95.59,12.19,-9.62,23.40,-69.00,-48.00,-220.00,122.00,144.00,50.00,5.20,45.30,45.30,19.00,-1,33.00,1.00,1,0,0,0,0,79.92,1,0,1,,
181050,13,0,0,13,1,13,43179,1,1,1,2.00,0.20,8.00,2,95.00,2.27,71.21,94.62,,91.92,11.98,-7.69,51.38,-69.00,-48.00,-220.00,122.00,144.00,50.00,5.20,45.30,45.30,19.00,-1,33.00,1.00,1,0,0,0,0,39.20,1,0,1,,
182054,19,0,0,19,1,19,50757,1,1,1,2.00,0.20,8.00,2,95.00,0.34,72.66,94.31,,95.00,10.70,-8.76,147.15,-69.00,-48.00,-220.00,122.00,144.00,50.00,5.20,45.30,45.30,19.00,-1,34.00,1.00,1,0,0,0,0,39.20,1,0,1,,
183050,19,0,0,19,1,12,50757,1,1,1,2.00,0.20,8.00,2,95.00,-1.18,72.34,94.41,,96.64,10.56,-8.13,50.93,-69.00,-48.00,-220.00,122.00,144.00,50.00,5.20,45.30,45.30,19.00,-1,34.00,1.00,1,0,0,0,0,18.20,1,0,1,,
184050,13,0,0,13,1,13,52378,1,1,1,2.00,0.20,8.00,2,95.00,-1.22,71.06,94.80,,95.80,12.12,-9.21,106.11,-69.00,-48.00,-220.00,122.00,144.00,50.00,5.20,45.30,45.30,19.00,-1,35.00,1.10,1,0,0,0,0,79.95,1,0,1,,
185050,13,0,0,13,1,13,52378,1,1,1,2.00,0.20,8.00,2,95.00,-2.35,70.65,94.84,,97.50,11.49,-8.16,49.46,-69.00,-48.00,-220.00,122.00,144.00,50.00,5.20,45.30,45.30,19.00,-1,34.00,1.10,1,0,0,0,0,37.70,1,0,1,,
186050,13,0,0,13,1,13,52378,1,1,1,2.00,0.20,8.00,2,95.00,0.31,70.49,94.93,,94.96,10.24,-7.84,51.78,-69.00,-48.00,-220.00,122.00,144.00,50.00,5.20,45.30,45.30,19.00,-1,35.00,1.10,1,0,0,0,0,37.70,1,0,1,,
187051,13,0,0,13,1,13,52378,1,1,1,2.00,0.20,8.00,2,95.00,-2.35,69.95,94.92,,97.81,11.31,-8.59,48.82,-69.00,-48.00,-220.00,122.00,144.00,50.00,5.10,45.30,45.30,19.00,-1,34.00,1.20,1,0,0,0,0,37.70,1,0,1,,
188050,13,0,0,13,1,13,52378,1,1,1,2.00,0.20,8.00,2,95.00,-0.45,68.90,95.13,,95.76,10.56,-8.50,50.78,-69.00,-48.00,-220.00,122.00,144.00,50.00,5.10,45.30,45.30,19.00,-1,34.00,1.20,1,0,0,0,0,19.63,1,0,1,,
189050,13,0,0,13,1,13,52378,1,1,1,2.00,0.20,8.00,2,95.00,-1.16,67.81,95.25,,96.42,11.42,-9.24,48.92,-69.00,-48.00,-220.00,122.00,144.00,50.00,5.10,45.30,45.30,19.00,-1,35.00,1.20,1,0,0,0,0,19.63,1,0,1,,
190050,13,0,0,13,1,12,52378,1,1,1,2.00,0.20,8.00,2,95.00,-0.08,67.50,95.39,,94.74,12.48,-8.89,51.50,-69.00,-48.00,-220.00,122.00,144.00,50.00,5.10,45.30,45.30,19.00,-1,34.00,1.30,1,0,0,0,0,19.63,1,0,1,,
191070,13,0,0,13,1,13,52378,1,1,1,2.00,0.20,8.00,2,95.00,1.04,68.21,95.26,,93.69,12.03,-8.77,23.11,-69.00,-48.00,-220.00,122.00,144.00,50.00,5.10,45.30,45.30,19.00,-1,34.00,1.30,1,0,0,0,0,19.63,1,0,1,,
192050,13,0,0,13,1,13,52378,1,1,1,2.00,0.20,8.00,2,95.00,-1.27,67.85,95.21,,95.17,12.33,-7.65,48.86,-69.00,-48.00,-220.00,122.00,144.00,50.00,5.10,45.30,45.30,19.00,-1,35.00,1.30,1,0,0,0,0,19.63,1,0,1,,
193070,13,0,0,13,1,13,52378,1,1,1,2.00,0.20,8.00,2,95.00,-0.74,66.92,95.25,,95.38,11.99,-9.15,23.66,-69.00,-48.00,-220.00,122.00,144.00,50.00,5.10,45.30,45.30,19.00,-1,35.00,1.30,1,0,0,0,0,19.63,1,0,1,,
194050,13,0,0,13,1,13,52378,1,1,1,2.00,0.20,8.00,2,95.00,0.33,67.35,95.13,,94.14,12.50,-8.19,49.55,-69.00,-48.00,-220.00,122.00,144.00,50.00,5.20,45.30,45.30,19.00,-1,34.00,1.30,1,0,0,0,0,13.66,1,0,1,,
195050,13,0,0,13,1,13,52378,1,1,1,2.00,0.20,8.00,2,95.00,-0.45,66.78,95.08,,94.99,12.39,-9.07,23.48,-69.00,-48.00,-220.00,122.00,144.00,50.00,5.20,45.30,45.30,19.00,-1,34.00,1.30,1,0,0,0,0,9.14,1,0,1,,
196050,13,0,0,13,1,13,52378,1,1,1,2.00,0.20,8.00,2,95.00,0.51,66.69,95.00,,94.63,12.22,-8.99,48.81,-69.00,-48.00,-220.00,122.00,144.00,50.00,5.20,45.30,45.30,19.00,-1,33.00,1.30,1,0,0,0,0,9.14,1,0,1,,
197050,13,0,0,13,0,8,0,1,1,1,2.00,0.20,8.00,2,95.00,-2.75,64.92,95.18,,97.40,11.70,-8.96,105.49,-69.00,-48.00,-220.00,122.00,144.00,50.00,5.20,45.30,45.30,19.00,-1,32.00,1.30,1,0,0,0,0,9.14,1,0,1,,
198050,9,0,0,9,1,9,699,1,1,1,2.00,0.20,8.00,2,95.00,-2.94,61.59,95.65,,98.01,11.25,-7.93,49.50,-69.00,-48.00,-220.00,122.00,144.00,50.00,5.20,45.30,45.30,21.00,-1,33.00,1.20,1,0,0,0,0,9.14,1,0,1,,
199050,9,0,0,9,1,9,699,1,1,1,2.00,0.20,8.00,2,95.00,-1.30,60.72,95.91,,96.24,10.83,-8.04,52.30,-69.00,-48.00,-220.00,122.00,144.00,50.00,5.20,45.30,45.30,19.00,-1,33.00,1.20,1,0,0,0,0,79.10,1,0,1,,
200050,9,0,0,9,0,4,0,1,1,1,2.00,0.20,8.00,2,95.00,-4.35,56.79,96.27,,99.50,11.15,-8.27,51.47,-69.00,-48.00,-220.00,122.00,144.00,50.00,5.30,45.30,45.30,19.00,-1,0.00,1.20,1,0,0,0,0,79.10,1,0,1,,
201050,5,0,0,5,1,5,3742,1,1,1,2.00,0.20,8.00,2,95.00,-4.05,52.86,96.76,,98.49,10.49,-7.82,49.42,-69.00,-48.00,-220.00,122.00,144.00,50.00,5.30,45.30,45.30,19.00,-1,35.00,1.20,1,0,0,0,0,79.10,1,0,1,,
202050,5,0,0,5,1,5,3742,1,1,1,2.00,0.20,8.00,2,95.00,-2.93,50.35,96.84,,98.43,10.61,-8.20,51.91,-69.00,-48.00,-220.00,122.00,144.00,50.00,5.30,45.30,45.30,19.00,-1,34.00,1.20,1,0,0,0,0,78.43,1,0,1,,
203051,5,0,0,5,1,5,3742,1,1,1,2.00,0.20,8.00,2,95.00,-3.08,47.02,97.23,,97.11,12.07,-8.47,48.83,-69.00,-48.00,-220.00,122.00,144.00,50.00,5.30,45.30,45.30,19.00,-1,33.00,1.20,1,0,0,0,0,78.43,1,0,1,,
204069,5,0,0,5,1,5,3742,1,1,1,2.00,0.20,8.00,2,95.00,-0.73,45.11,97.20,,96.46,8.99,-7.68,23.73,-69.00,-48.00,-220.00,122.00,144.00,50.00,5.30,45.30,45.30,21.00,-1,34.00,1.20,1,0,0,0,0,78.43,1,0,1,,
205050,5,0,0,5,1,9,3742,1,1,1,2.00,0.20,8.00,2,95.00,0.20,45.22,96.91,,94.81,11.46,-8.30,48.13,-69.00,-48.00,-220.00,122.00,144.00,50.00,5.30,45.30,45.30,19.00,-1,33.00,1.20,1,0,0,0,0,78.43,1,0,1,,
206050,11,0,0,11,1,11,9142,1,1,1,2.00,0.20,8.00,2,95.00,-0.43,45.44,96.53,,94.96,12.08,-8.95,23.36,-69.00,-48.00,-220.00,122.00,144.00,50.00,5.30,45.30,45.30,19.00,-1,32.00,1.10,1,0,0,0,0,78.43,1,0,1,,
207050,11,0,0,11,1,8,9142,1,1,1,2.00,0.20,8.00,2,95.00,-0.19,45.56,96.22,,95.11,10.59,-7.93,48.88,-69.00,-48.00,-220.00,122.00,144.00,50.00,5.30,45.30,45.30,19.00,-1,33.00,1.10,1,0,0,0,0,78.43,1,0,1,,
208050,3,0,0,3,1,3,11392,1,1,1,2.00,0.20,8.00,2,95.00,-1.35,43.36,96.30,,96.42,10.60,-8.12,96.64,-69.00,-48.00,-220.00,122.00,144.00,50.00,5.30,45.30,45.30,19.00,-1,35.00,1.10,1,0,0,0,0,78.43,1,0,1,,
209050,3,0,0,3,1,3,11392,1,1,1,2.00,0.20,8.00,2,95.00,-2.37,40.88,96.50,,97.08,10.21,-7.99,51.38,-69.00,-48.00,-220.00,122.00,144.00,50.00,5.30,45.30,45.30,21.00,-1,34.00,1.00,1,0,0,0,0,78.43,1,0,1,,
210050,3,0,0,3,1,5,11392,1,1,1,2.00,0.20,8.00,2,95.00,-1.26,39.79,96.44,,96.14,10.40,-7.52,49.05,-69.00,-48.00,-220.00,122.00,144.00,50.00,5.30,45.30,45.30,19.00,-1,32.00,1.00,1,0,0,0,0,78.21,1,0,1,,
211050,3,0,0,3,2,14,0,1,1,1,2.00,0.20,8.00,2,95.00,2.68,40.77,96.16,,92.25,10.18,-8.09,50.79,-69.00,-48.00,-220.00,122.00,144.00,50.00,5.30,45.30,45.30,19.00,-1,34.00,1.70,1,0,0,0,0,78.21,1,0,1,,
212050,14,0,0,14,0,4,0,1,1,1,2.00,0.20,8.00,2,95.00,-1.69,40.06,95.96,,95.88,11.86,-7.73,48.66,-69.00,-48.00,-220.00,122.00,144.00,50.00,5.30,45.30,45.30,21.00,-1,33.00,1.70,1,0,0,0,0,78.21,1,0,1,,
213050,4,0,0,4,1,4,15942,1,1,1,2.00,0.20,8.00,2,95.00,-0.23,39.72,95.85,,95.22,10.08,-8.08,52.06,-69.00,-48.00,-220.00,122.00,144.00,50.00,5.30,45.30,45.30,21.00,-1,32.00,1.70,1,0,0,0,0,34.75,1,0,1,,
214050,4,0,0,4,1,4,15942,1,1,1,2.00,0.20,8.00,2,95.00,-1.33,38.34,95.93,,96.15,11.31,-8.04,49.58,-69.00,-48.00,-220.00,122.00,144.00,50.00,5.30,45.30,45.30,19.00,-1,32.00,1.80,1,0,0,0,0,18.20,1,0,1,,
215069,4,0,0,4,2,9,0,1,1,1,2.00,0.20,8.00,2,95.00,1.09,38.96,95.77,,94.42,10.67,-8.34,23.94,-69.00,-48.00,-220.00,122.00,144.00,50.00,5.30,45.40,45.40,19.00,-1,31.00,1.80,1,0,0,0,0,18.20,1,0,1,,
216050,6,0,0,6,1,6,19243,1,1,1,2.00,0.20,8.00,2,95.00,0.35,38.62,95.73,,94.43,11.57,-8.72,51.38,-69.00,-48.00,-220.00,122.00,144.00,50.00,5.30,45.40,45.40,19.00,-1,32.00,1.80,1,0,0,0,0,18.20,1,0,1,,
217050,6,0,0,6,1,6,19243,1,1,1,2.00,0.20,8.00,2,95.00,-0.36,38.56,95.50,,95.05,11.74,-8.25,24.40,-69.00,-48.00,-220.00,122.00,144.00,50.00,5.30,45.40,45.40,19.00,-1,33.00,1.80,1,0,0,0,0,34.75,1,0,1,,
218050,6,0,0,6,1,6,19243,1,1,1,2.00,0.20,8.00,2,95.00,-0.84,38.48,95.40,,95.81,12.03,-9.01,51.27,-69.00,-48.00,-220.00,122.00,144.00,50.00,5.30,45.40,45.40,19.00,-1,33.00,1.80,1,0,0,0,0,19.69,1,0,1,,
219051,6,0,0,6,1,6,19243,1,1,1,2.00,0.20,8.00,2,95.00,0.05,38.26,95.35,,95.19,11.79,-8.44,106.88,-69.00,-48.00,-220.00,122.00,144.00,50.00,5.30,45.40,45.40,21.00,-1,33.00,1.80,1,0,0,0,0,19.69,1,0,1,,
220050,6,0,0,6,1,6,19243,1,1,1,2.00,0.20,8.00,2,95.00,-1.26,37.67,95.34,,96.53,11.35,-8.31,51.50,-69.00,-48.00,-220.00,122.00,144.00,50.00,5.20,45.40,45.40,21.00,-1,33.00,1.80,1,0,0,0,0,34.75,1,0,1,,
221050,6,0,0,6,1,6,19243,1,1,1,2.00,0.20,8.00,2,95.00,-1.84,36.73,95.40,,96.49,12.53,-8.97,48.87,-69.00,-48.00,-220.00,122.00,144.00,50.00,5.20,45.40,45.40,21.00,-1,33.00,1.80,1,0,0,0,0,34.75,1,0,1,,
222050,6,0,0,6,1,6,19243,1,1,1,2.00,0.20,8.00,2,95.00,-1.82,35.12,95.55,,97.06,11.75,-8.87,52.03,-69.00,-48.00,-220.00,122.00,144.00,50.00,5.20,45.40,45.40,21.00,-1,33.00,1.00,1,0,0,0,0,19.69,1,0,1,,
223050,6,0,0,6,1,6,19243,1,1,1,2.00,0.20,8.00,2,95.00,0.40,34.14,95.55,,94.33,12.10,-8.29,48.89,-69.00,-48.00,-220.00,122.00,144.00,50.00,5.20,45.40,45.40,19.00,-1,32.00,1.00,1,0,0,0,0,77.48,1,0,1,,
224050,6,0,0,6,1,6,19243,1,1,1,2.00,0.20,8.00,2,95.00,-0.07,34.21,95.41,,95.13,11.21,-9.06,48.29,-69.00,-48.00,-220.00,122.00,144.00,50.00,5.20,45.40,45.40,21.00,-1,33.00,1.00,1,0,0,0,0,34.75,1,0,1,,
225050,6,0,0,6,1,6,19243,1,1,1,2.00,0.20,8.00,2,95.00,1.62,34.93,95.27,,93.60,12.01,-8.75,52.04,-69.00,-48.00,-220.00,122.00,144.00,50.00,5.20,45.40,45.40,19.00,-1,33.00,1.10,1,0,0,0,0,34.75,1,0,1,,
226070,6,0,0,6,1,6,19243,1,1,1,2.00,0.20,8.00,2,95.00,1.02,36.29,94.98,,94.20,11.52,-8.24,23.29,-69.00,-48.00,-220.00,122.00,144.00,50.00,5.20,45.40,45.40,21.00,-1,34.00,1.10,1,0,0,0,0,34.75,1,0,1,,
227050,6,0,0,6,2,11,0,1,1,1,2.00,0.20,8.00,2,95.00,2.32,37.37,94.85,,92.57,11.92,-9.05,50.53,-69.00,-48.00,-220.00,122.00,144.00,50.00,5.20,45.40,45.40,21.00,-1,34.00,1.30,1,0,0,0,0,34.75,1,0,1,,
228057,11,0,0,11,1,11,30642,1,1,1,2.00,0.20,8.00,2,95.00,2.50,39.12,94.56,,93.02,11.93,-8.49,134.26,-69.00,-48.00,-220.00,122.00,144.00,50.00,5.20,45.40,45.40,19.00,-1,33.00,1.30,1,0,0,0,0,34.75,1,0,1,,
229050,7,0,0,7,1,7,32192,1,1,1,2.00,0.20,8.00,2,95.00,-0.47,38.57,94.66,,95.18,12.24,-8.65,51.29,-69.00,-48.00,-220.00,122.00,144.00,50.00,5.30,45.40,45.40,19.00,-1,33.00,1.30,1,0,0,0,0,18.14,1,0,1,,
230050,11,0,0,11,1,11,33092,1,1,1,2.00,0.20,8.00,2,95.00,0.97,40.39,94.46,,94.66,11.46,-9.32,111.26,-69.00,-48.00,-220.00,122.00,144.00,50.00,5.30,45.40,45.40,21.00,-1,34.00,1.30,1,0,0,0,0,78.67,1,0,1,,
231050,5,0,0,5,1,5,34301,1,1,1,2.00,0.20,8.00,2,95.00,-2.27,38.28,94.78,,97.67,12.14,-8.87,51.38,-69.00,-48.00,-220.00,122.00,144.00,50.00,5.30,45.40,45.40,19.00,-1,35.00,1.30,1,0,0,0,0,9.14,1,0,1,,
232050,5,0,0,5,1,10,34301,1,1,1,2.00,0.20,8.00,2,95.00,1.65,39.35,94.90,,93.47,10.51,-8.67,51.21,-69.00,-48.00,-220.00,122.00,144.00,50.00,5.30,45.40,45.40,19.00,-1,35.00,1.30,1,0,0,0,0,77.60,1,0,1,,
233050,11,0,0,11,1,8,35642,1,1,1,2.00,0.20,8.00,2,95.00,0.17,39.60,94.76,,95.47,10.89,-8.50,48.70,-69.00,-48.00,-220.00,122.00,144.00,50.00,5.30,45.40,45.40,19.00,-1,34.00,1.40,1,0,0,0,0,77.60,1,0,1,,
234050,7,0,0,7,1,7,37161,1,1,1,2.00,0.20,8.00,2,95.00,-1.96,38.25,95.05,,96.49,12.06,-8.56,52.03,-69.00,-48.00,-220.00,122.00,144.00,50.00,5.30,45.40,45.40,19.00,-1,34.00,1.40,1,0,0,0,0,77.60,1,0,1,,
235051,7,0,0,7,1,4,37161,1,1,1,2.00,0.20,8.00,2,95.00,-1.92,36.30,95.42,,96.57,11.41,-7.29,48.30,-69.00,-48.00,-220.00,122.00,144.00,50.00,5.40,45.40,45.40,21.00,-1,33.00,1.50,1,0,0,0,0,77.60,1,0,1,,
236050,7,0,0,7,1,7,37161,1,1,1,2.00,0.20,8.00,2,95.00,-1.14,34.80,95.59,,96.61,10.69,-8.11,50.85,-69.00,-48.00,-220.00,122.00,144.00,50.00,5.40,45.40,45.40,21.00,-1,34.00,1.50,1,0,0,0,0,34.75,1,0,1,,
237070,7,0,0,7,1,7,37161,1,1,1,2.00,0.20,8.00,2,95.00,-1.56,33.82,95.62,,96.64,11.56,-8.47,23.28,-69.00,-48.00,-220.00,122.00,144.00,50.00,5.40,45.40,45.40,20.00,-1,33.00,1.50,1,0,0,0,0,19.63,1,0,1,,
238050,7,0,0,7,0,1,0,1,1,1,2.00,0.20,8.00,2,95.00,-2.57,31.94,95.75,,97.85,9.60,-7.92,51.51,-69.00,-48.00,-220.00,122.00,144.00,50.00,5.40,45.40,45.40,21.00,-1,32.00,1.50,1,0,0,0,0,19.63,1,0,1,,
239056,2,0,0,2,1,2,41792,1,1,1,2.00,0.20,8.00,2,95.00,-3.73,28.62,96.09,,97.96,10.81,-8.05,132.91,-69.00,-48.00,-220.00,122.00,144.00,50.00,5.40,45.40,45.40,21.00,-1,31.00,1.50,1,0,0,0,0,76.69,1,0,1,,
240050,2,0,0,2,1,2,41792,1,1,1,2.00,0.20,8.00,2,95.00,0.07,28.68,96.13,,93.49,12.12,-7.73,49.09,-69.00,-48.00,-220.00,122.00,144.00,50.00,5.40,45.40,45.40,21.00,-1,32.00,1.50,1,0,0,0,0,34.75,1,0,1,,
241050,2,0,0,2,1,2,41792,1,1,1,2.00,0.20,8.00,2,95.00,-1.98,27.71,95.93,,97.35,10.64,-9.11,104.87,-69.00,-48.00,-220.00,122.00,144.00,50.00,5.40,45.40,45.40,21.00,-1,33.00,1.40,1,0,0,0,0,19.69,1,0,1,,
242050,2,0,0,2,1,2,41792,1,1,1,2.00,0.20,8.00,2,95.00,-2.86,24.89,96.21,,97.87,10.82,-7.59,48.69,-69.00,-48.00,-220.00,122.00,144.00,50.00,5.40,45.40,45.40,20.00,-1,34.00,1.40,1,0,0,0,0,19.69,1,0,1,,
243050,2,0,0,2,1,2,41792,1,1,1,2.00,0.20,8.00,2,95.00,-0.77,22.96,96.25,,95.40,10.77,-6.85,51.85,-69.00,-48.00,-220.00,122.00,144.00,50.00,5.40,45.40,45.40,21.00,-1,33.00,1.10,1,0,0,0,0,19.69,1,0,1,,
244050,2,0,0,2,1,2,41792,1,1,1,2.00,0.20,8.00,2,95.00,-0.58,23.06,95.97,,95.95,10.36,-8.32,48.95,-69.00,-48.00,-220.00,122.00,144.00,50.00,5.40,45.40,45.40,21.00,-1,34.00,1.10,1,0,0,0,0,12.16,1,0,1,,
245050,2,0,0,2,1,0,41792,1,1,1,2.00,0.20,8.00,2,95.00,-2.57,20.84,96.04,,98.30,9.91,-8.18,52.20,-69.00,-48.00,-220.00,122.00,144.00,50.00,5.40,45.40,45.40,21.00,-1,33.00,1.10,1,0,0,0,0,12.16,1,0,1,,
246050,2,0,0,2,1,2,41792,1,1,1,2.00,0.20,8.00,2,95.00,-1.55,18.13,96.41,,96.67,10.69,-8.27,48.84,-69.00,-48.00,-220.00,122.00,144.00,50.00,5.40,45.40,45.40,20.00,-1,32.00,1.80,1,0,0,0,0,12.16,1,0,1,,
247050,2,0,0,2,1,2,41792,1,1,1,2.00,0.20,8.00,2,95.00,-2.23,16.23,96.44,,96.74,10.78,-7.79,50.48,-69.00,-48.00,-220.00,122.00,144.00,50.00,5.40,45.40,45.40,20.00,-1,33.00,1.80,1,0,0,0,0,12.16,1,0,1,,
248070,2,0,0,2,1,2,41792,1,1,1,2.00,0.20,8.00,2,95.00,0.31,16.16,96.17,,94.90,11.57,-7.95,23.70,-69.00,-48.00,-220.00,122.00,144.00,50.00,5.40,45.40,45.40,21.00,-1,34.00,1.80,1,0,0,0,0,12.16,1,0,1,,
249050,2,0,0,2,2,7,0,1,1,1,2.00,0.20,8.00,2,95.00,1.43,17.13,95.83,,93.57,11.51,-7.73,48.76,-69.00,-48.00,-220.00,122.00,144.00,50.00,5.40,45.40,45.40,20.00,-1,33.00,1.80,1,0,0,0,0,12.16,1,0,1,,
250050,3,0,0,3,1,3,53292,1,1,1,2.00,0.20,8.00,2,95.00,-3.44,15.08,95.87,,98.10,11.13,-8.94,23.81,-69.00,-48.00,-220.00,122.00,144.00,50.00,5.40,45.40,45.40,21.00,-1,34.00,1.80,1,0,0,0,0,12.16,1,0,1,,
251051,3,0,0,3,1,3,53292,1,1,1,2.00,0.20,8.00,2,95.00,-0.81,13.76,95.99,,96.01,11.27,-8.05,48.95,-69.00,-48.00,-220.00,122.00,144.00,50.00,5.40,45.40,45.40,20.00,-1,33.00,1.80,1,0,0,0,0,10.67,1,0,1,,
252050,3,0,0,3,1,3,53292,1,1,1,2.00,0.20,8.00,2,95.00,1.03,14.43,95.74,,93.97,11.44,-8.35,104.12,-69.00,-48.00,-220.00,122.00,144.00,50.00,5.40,45.40,45.40,20.00,-1,35.00,1.80,1,0,0,0,0,10.67,1,0,1,,
253050,3,0,0,3,1,3,53292,1,1,1,2.00,0.20,8.00,2,95.00,1.69,16.02,95.40,,93.10,10.85,-8.35,48.70,-69.00,-48.00,-220.00,122.00,144.00,50.00,5.40,45.40,45.40,21.00,-1,36.00,1.80,1,0,0,0,0,10.67,1,0,1,,
254050,3,0,0,3,1,4,53292,1,1,1,2.00,0.20,8.00,2,95.00,0.37,17.01,95.21,,93.48,10.81,-6.88,51.23,-69.00,-48.00,-220.00,122.00,144.00,50.00,5.40,45.40,45.40,20.00,-1,35.00,1.80,1,0,0,0,0,10.67,1,0,1,,
255050,3,0,0,3,1,3,53292,1,1,1,2.00,0.20,8.00,2,95.00,1.38,18.28,94.90,,93.41,10.49,-7.74,48.97,-69.00,-48.00,-220.00,122.00,144.00,50.00,5.40,45.40,45.40,21.00,-1,34.00,1.80,1,0,0,0,0,10.67,1,0,1,,
256050,3,0,0,3,1,3,53292,1,1,1,2.00,0.20,8.00,2,95.00,-0.12,18.37,94.84,,95.82,9.72,-8.19,48.94,-69.00,-48.00,-220.00,122.00,144.00,50.00,5.40,45.40,45.40,20.00,-1,34.00,1.80,1,0,0,0,0,10.67,1,0,1,,
257050,3,0,0,3,1,0,53292,1,1,1,2.00,0.20,8.00,2,95.00,-1.40,18.24,94.88,,96.68,10.77,-7.57,50.72,-69.00,-48.00,-220.00,122.00,144.00,50.00,5.30,45.40,45.40,21.00,-1,34.00,1.80,1,0,0,0,0,10.67,1,0,1,,
258050,3,0,0,3,1,3,53292,1,1,1,2.00,0.20,8.00,2,95.00,1.28,19.37,94.94,,93.29,9.81,-7.53,48.03,-69.00,-48.00,-220.00,122.00,144.00,50.00,5.30,45.40,45.40,21.00,-1,33.00,1.80,1,0,0,0,0,10.67,1,0,1,,
259069,3,0,0,3,1,3,53292,1,1,1,2.00,0.20,8.00,2,95.00,1.54,20.89,94.71,,94.52,9.21,-8.00,23.77,-69.00,-48.00,-220.00,122.00,144.00,50.00,5.30,45.40,45.40,20.00,-1,34.00,1.70,1,0,0,0,0,10.67,1,0,1,,
260050,9,0,0,9,1,9,63148,1,1,1,2.00,0.20,8.00,2,95.00,1.86,23.00,94.59,,92.85,11.55,-8.66,48.85,-69.00,-48.00,-220.00,122.00,144.00,50.00,5.30,45.40,45.40,20.00,-1,33.00,1.70,1,0,0,0,0,10.67,1,0,1,,
261069,3,0,0,3,2,10,0,1,1,1,2.00,0.20,8.00,2,95.00,3.15,24.21,94.52,,92.68,10.36,-9.09,23.91,-69.00,-48.00,-220.00,122.00,144.00,50.00,5.30,45.40,45.40,20.00,-1,32.00,1.70,1,0,0,0,0,10.67,1,0,1,,
262050,10,0,0,10,1,10,64692,1,1,1,2.00,0.20,8.00,2,95.00,0.89,25.66,94.31,,94.10,11.52,-8.44,48.75,-69.00,-48.00,-220.00,122.00,144.00,50.00,5.30,45.40,45.40,20.00,-1,31.00,1.80,1,0,0,0,0,10.67,1,0,1,,
263050,10,0,0,10,1,10,64692,1,1,1,2.00,0.20,8.00,2,95.00,2.38,27.32,94.18,,92.68,10.69,-7.67,23.69,-69.00,-48.00,-220.00,122.00,144.00,50.00,5.30,45.40,45.40,20.00,-1,32.00,1.80,1,0,0,0,0,10.67,1,0,1,,
264050,10,0,0,10,1,10,64692,1,1,1,2.00,0.20,8.00,2,95.00,2.28,30.41,93.80,,92.96,10.96,-8.38,50.84,-69.00,-48.00,-220.00,122.00,144.00,50.00,5.30,45.40,45.40,21.00,-1,34.00,1.80,1,0,0,0,0,10.67,1,0,1,,
265050,10,0,0,10,1,10,64692,1,1,1,2.00,0.20,8.00,2,95.00,0.48,30.90,93.96,,94.37,11.36,-9.11,107.53,-69.00,-48.00,-220.00,122.00,144.00,50.00,5.30,45.40,45.40,21.00,-1,34.00,1.10,1,0,0,0,0,10.67,1,0,1,,
266050,10,0,0,10,1,10,64692,1,1,1,2.00,0.20,8.00,2,95.00,2.93,33.29,93.82,,92.11,11.55,-8.81,52.16,-69.00,-48.00,-220.00,122.00,144.00,50.00,5.30,45.40,45.40,21.00,-1,34.00,1.10,1,0,0,0,0,10.67,1,0,1,,
267051,10,0,0,10,1,10,64692,1,1,1,2.00,0.20,8.00,2,95.00,1.18,34.62,93.79,,93.84,11.22,-8.27,49.06,-69.00,-48.00,-220.00,122.00,144.00,50.00,5.30,45.40,45.40,20.00,-1,35.00,1.10,1,0,0,0,0,10.67,1,0,1,,
268050,5,0,0,5,1,5,5706,1,1,1,2.00,0.20,8.00,2,95.00,-0.47,33.85,94.08,,95.18,11.89,-8.92,50.70,-69.00,-48.00,-220.00,122.00,144.00,50.00,5.20,45.40,45.40,21.00,-1,35.00,1.10,1,0,0,0,0,10.67,1,0,1,,
269050,5,0,0,5,1,5,5706,1,1,1,2.00,0.20,8.00,2,95.00,1.85,35.57,94.04,,92.62,11.46,-8.55,48.26,-69.00,-48.00,-220.00,122.00,144.00,50.00,5.20,45.40,45.40,21.00,-1,36.00,1.10,1,0,0,0,0,10.67,1,0,1,,
270050,11,0,0,11,1,11,7606,1,1,1,2.00,0.20,8.00,2,95.00,2.20,37.84,93.81,,92.82,10.42,-8.10,51.74,-69.00,-48.00,-220.00,122.00,144.00,50.00,5.20,45.40,45.40,21.00,-1,36.00,1.10,1,0,0,0,0,10.67,1,0,1,,
271050,11,0,0,11,1,11,7606,1,1,1,2.00,0.20,8.00,2,95.00,1.77,39.71,93.64,,93.93,10.11,-8.24,49.39,-69.00,-48.00,-220.00,122.00,144.00,50.00,5.20,45.40,45.40,21.00,-1,35.00,1.10,1,0,0,0,0,10.67,1,0,1,,
272070,4,0,0,4,2,12,0,1,1,1,2.00,0.20,8.00,2,95.00,0.81,38.80,94.19,,94.15,9.97,-8.49,23.24,-69.00,-48.00,-220.00,122.00,144.00,50.00,5.20,45.40,45.40,21.00,-1,36.00,1.10,1,0,0,0,0,9.14,1,0,1,,
273050,11,0,0,11,1,11,10206,1,1,1,2.00,0.20,8.00,2,95.00,3.47,40.33,94.16,,91.15,10.24,-7.17,51.54,-69.00,-48.00,-220.00,122.00,144.00,50.00,5.20,45.40,45.40,20.00,-1,35.00,1.10,1,0,0,0,0,70.93,1,0,1,,
274050,11,0,0,11,1,11,10206,1,1,1,2.00,0.20,8.00,2,95.00,2.15,42.82,93.78,,93.13,9.74,-8.00,24.26,-69.00,-48.00,-220.00,122.00,144.00,50.00,5.20,45.40,45.40,20.00,-1,34.00,1.10,1,0,0,0,0,34.69,1,0,1,,
275050,11,0,0,11,1,11,10206,1,1,1,2.00,0.20,8.00,2,95.00,0.97,43.62,93.85,,93.68,10.32,-7.41,51.63,-69.00,-48.00,-220.00,122.00,144.00,50.00,5.20,45.40,45.40,20.00,-1,33.00,1.00,1,0,0,0,0,70.71,1,0,1,,
276050,11,0,0,11,1,11,10206,1,1,1,2.00,0.20,8.00,2,95.00,3.39,45.95,93.76,,92.60,9.14,-8.56,102.00,-69.00,-48.00,-220.00,122.00,144.00,50.00,5.20,45.40,45.40,20.00,-1,34.00,1.00,1,0,0,0,0,70.71,1,0,1,,
277050,11,0,0,11,0,6,0,1,1,1,2.00,0.20,8.00,2,95.00,-1.17,45.29,93.87,,96.74,9.76,-7.43,51.81,-69.00,-48.00,-220.00,122.00,144.00,50.00,5.20,45.40,45.40,21.00,-1,34.00,1.00,1,0,0,0,0,70.71,1,0,1,,
278050,7,0,0,7,1,7,15156,1,1,1,2.00,0.20,8.00,2,95.00,1.21,45.63,94.16,,93.62,9.66,-7.04,48.44,-69.00,-48.00,-220.00,122.00,144.00,50.00,5.20,45.40,45.40,21.00,-1,33.00,1.70,1,0,0,0,0,34.69,1,0,1,,
279050,7,0,0,7,1,7,15156,1,1,1,2.00,0.20,8.00,2,95.00,-0.66,45.17,94.28,,95.78,10.54,-7.97,52.01,-69.00,-48.00,-220.00,122.00,144.00,50.00,5.20,45.40,45.40,20.00,-1,32.00,1.70,1,0,0,0,0,34.69,1,0,1,,
280050,7,0,0,7,1,7,15156,1,1,1,2.00,0.20,8.00,2,95.00,1.29,46.75,94.27,,93.22,11.08,-7.63,51.31,-69.00,-48.00,-220.00,122.00,144.00,50.00,5.20,45.40,45.40,21.00,-1,31.00,1.70,1,0,0,0,0,34.69,1,0,1,,
281050,12,0,0,12,1,11,18606,1,1,1,2.00,0.20,8.00,2,95.00,0.86,48.05,94.08,,94.41,10.56,-8.34,48.11,-69.00,-48.00,-220.00,122.00,144.00,50.00,5.20,45.40,45.40,21.00,-1,32.00,1.70,1,0,0,0,0,34.69,1,0,1,,
282050,12,0,0,12,1,12,18606,1,1,1,2.00,0.20,8.00,2,95.00,1.20,50.33,93.86,,93.70,10.90,-7.96,52.12,-69.00,-48.00,-220.00,122.00,144.00,50.00,5.20,45.40,45.40,21.00,-1,32.00,1.70,1,0,0,0,0,34.69,1,0,1,,
283070,12,0,0,12,2,18,0,1,1,1,2.00,0.20,8.00,2,95.00,4.47,52.49,93.80,,91.50,9.85,-8.51,23.15,-69.00,-48.00,-220.00,122.00,144.00,50.00,5.10,45.40,45.40,20.00,-1,32.00,1.80,1,0,0,0,0,34.69,1,0,1,,
284050,17,0,0,17,0,9,0,1,1,1,2.00,0.20,8.00,2,95.00,-0.84,52.87,93.79,,95.57,11.09,-8.59,50.88,-69.00,-48.00,-220.00,122.00,144.00,50.00,5.10,1.72,45.40,21.00,-1,34.00,1.80,1,0,0,0,0,34.69,1,0,1,,
285070,9,0,0,9,2,14,0,1,1,1,2.00,0.20,8.00,2,95.00,2.44,54.84,93.82,,93.06,9.82,-6.89,23.28,-69.00,-48.00,-220.00,122.00,144.00,50.00,5.10,1.72,45.40,21.00,-1,34.00,1.80,1,0,0,0,0,34.69,1,0,1,,
286050,14,0,0,14,1,14,23106,1,1,1,2.00,0.20,8.00,2,95.00,0.81,55.51,93.84,,94.14,10.26,-7.56,51.10,-69.00,-48.00,-220.00,122.00,144.00,50.00,5.10,1.72,45.40,20.00,-1,32.00,1.80,1,0,0,0,0,12.16,1,0,1,,
287056,14,0,0,14,1,14,23106,1,1,1,2.00,0.20,8.00,2,95.00,1.18,56.89,93.79,,94.32,9.93,-7.08,134.70,-69.00,-48.00,-220.00,122.00,144.00,50.00,5.10,1.72,45.40,20.00,-1,30.00,1.80,1,0,0,0,0,69.86,1,0,1,,
288050,14,0,0,14,1,14,23106,1,1,1,2.00,0.20,8.00,2,95.00,2.17,58.27,93.77,,93.54,10.33,-7.52,48.58,-69.00,-48.00,-220.00,122.00,144.00,50.00,5.10,1.72,45.40,20.00,-1,31.00,1.80,1,0,0,0,0,69.86,1,0,1,,
289050,14,0,0,14,1,14,23106,1,1,1,2.00,0.20,8.00,2,95.00,1.04,59.89,93.81,,93.79,10.78,-7.38,104.30,-69.00,-48.00,-220.00,122.00,144.00,50.00,5.10,1.72,45.40,20.00,-1,32.00,1.70,1,0,0,0,0,31.73,1,0,1,,
290050,14,0,0,14,1,14,23106,1,1,1,2.00,0.20,8.00,2,95.00,-0.57,59.22,94.03,,95.52,10.09,-7.24,49.39,-69.00,-48.00,-220.00,122.00,144.00,50.00,5.00,1.72,45.40,21.00,-1,33.00,1.70,1,0,0,0,0,31.73,1,0,1,,
291050,14,0,0,14,1,14,23106,1,1,1,2.00,0.20,8.00,2,95.00,0.55,60.09,94.06,,94.26,9.65,-6.70,51.78,-69.00,-48.00,-220.00,122.00,144.00,50.00,5.00,1.72,45.40,20.00,-1,32.00,1.70,1,0,0,0,0,31.73,1,0,1,,
292050,14,0,0,14,1,18,23106,1,1,1,2.00,0.20,8.00,2,95.00,3.46,62.41,94.04,,91.09,11.10,-7.46,49.75,-69.00,-48.00,-220.00,122.00,144.00,50.00,5.00,1.72,45.40,20.00,-1,31.00,1.70,1,0,0,0,0,15.15,1,0,1,,
293050,14,0,0,14,1,14,23106,1,1,1,2.00,0.20,8.00,2,95.00,2.91,64.31,93.77,,92.64,9.59,-7.57,51.86,-69.00,-48.00,-220.00,122.00,144.00,50.00,5.00,1.72,45.40,21.00,-1,32.00,1.70,1,0,0,0,0,15.15,1,0,1,,
294050,14,0,0,14,1,11,23106,1,1,1,2.00,0.20,8.00,2,95.00,-0.69,63.47,94.05,,95.51,9.88,-7.20,48.30,-69.00,-48.00,-220.00,122.00,144.00,50.00,5.00,1.72,45.40,20.00,-1,32.00,1.60,1,0,0,0,0,10.67,1,0,1,,
295050,14,0,0,14,1,14,23106,1,1,1,2.00,0.20,8.00,2,95.00,-1.58,63.65,94.18,,96.60,10.91,-7.79,50.68,-69.00,-48.00,-220.00,122.00,144.00,50.00,5.00,1.72,45.40,20.00,-1,31.00,1.60,1,0,0,0,0,69.65,1,0,1,,
296070,14,0,0,14,1,14,23106,1,1,1,2.00,0.20,8.00,2,95.00,3.16,65.67,94.25,,92.94,8.65,-7.57,23.85,-69.00,-48.00,-220.00,122.00,144.00,50.00,5.00,1.72,45.40,21.00,-1,32.00,1.60,1,0,0,0,0,7.65,1,0,1,,
297050,9,0,0,9,2,14,0,1,1,1,2.00,0.20,8.00,2,95.00,1.02,65.10,94.46,,93.80,10.63,-7.35,49.58,-69.00,-48.00,-220.00,122.00,144.00,50.00,5.00,1.72,45.40,21.00,-1,32.00,1.50,1,0,0,0,0,7.65,1,0,1,,
298050,14,0,0,14,0,7,0,1,1,1,2.00,0.20,8.00,2,95.00,-2.77,63.90,94.50,,97.61,11.47,-7.67,23.76,-69.00,-48.00,-220.00,122.00,144.00,50.00,4.90,1.72,45.40,21.00,-1,31.00,1.50,1,0,0,0,0,7.65,1,0,1,,
299051,8,0,0,8,1,8,36306,1,1,1,2.00,0.20,8.00,2,95.00,-1.94,62.37,94.85,,97.10,10.44,-7.51,49.45,-69.00,-48.00,-220.00,122.00,144.00,50.00,4.90,1.72,45.40,20.00,-1,32.00,1.50,1,0,0,0,0,7.65,1,0,1,,
