Millis,m_currentPosition,m_pressedButtonDebug,m_bytesToSent,CurrentPosition,CurrentDirection,TargetPosition,MSStopped,stauosressoysCosiogsitped,startButton,stopButton,parkingButton,m_P,m_I,m_D,m_goalType,m_goal,m_lastError,m_errorSum,m_lastFilteredYaw,,yaw,pitch,roll,freq,magMin[0],magMin[1],magMin[2],magMax[0],magMax[1],magMax[2],m_speed,,m_P,m_I,m_D,m_goalType,m_go,_arai,y,itcroM,maMM[0],M[1]M[2]ped,m_speed.tripMileage,m_speed.totalMileage,m_speed.waterTemp,m_lampIntensity,m_wind.apparentAngle,m_wind.apparentSpeed,m_wind.displayInKnots,m_wind.displayInMpS,m_depth.anchorAlarm,m_depth.deepAlarm,m_depth.defective,m_depth.depthBelowTransductor,m_depth.metricUnits,m_depth.shallowAlarm,m_depth.unknown,Position,
1050,1,0,0,1,1,1,77,1,1,1,2.00,0.20,8.00,0,0.00,0.00,0.00,21.83,,49.21,-27.30,-7.07,51.40,-69.00,-48.00,-220.00,122.00,144.00,50.00,5.10,25.90,25.90,21.00,-1,319.00,0.00,1,0,0,0,0,15.27,1,0,1,,
2056,1,0,0,1,1,1,77,1,1,1,2.00,0.20,8.00,0,0.00,0.00,0.00,28.30,,80.39,-12.52,-15.24,146.63,-69.00,-48.00,-220.00,122.00,144.00,50.00,5.10,25.90,25.90,20.00,-1,318.00,0.00,1,0,0,0,0,15.27,1,0,1,,
3050,1,0,0,1,1,1,77,1,1,1,2.00,0.20,8.00,0,0.00,0.00,0.00,41.03,,129.37,-5.05,-14.98,50.75,-69.00,-48.00,-220.00,122.00,144.00,50.00,5.10,25.90,25.90,20.00,-1,319.00,0.00,1,0,0,0,0,15.27,1,0,1,,
4050,1,0,0,1,1,1,77,1,1,1,2.00,0.20,8.00,0,0.00,0.00,0.00,59.96,,173.38,0.53,-6.84,93.21,-69.00,-48.00,-220.00,122.00,144.00,50.00,5.10,25.90,25.90,20.00,-1,319.00,1.40,1,0,0,0,0,15.27,1,0,1,,
5050,1,0,0,1,0,-3597,0,1,1,1,2.00,0.20,8.00,2,200.00,5.51,2.76,81.53,,195.10,1.60,-2.35,51.40,-69.00,-48.00,-220.00,122.00,144.00,50.00,5.00,25.90,25.90,21.00,-1,320.00,1.40,1,0,0,0,0,15.27,1,0,1,,
6050,-37,0,0,-37,1,-37,6050,1,1,1,2.00,0.20,8.00,2,200.00,0.28,3.98,101.49,,200.14,2.32,-2.29,95.68,-69.00,-48.00,-220.00,122.00,144.00,50.00,5.00,25.90,25.90,20.00,-1,319.00,1.40,1,0,0,0,0,9.08,1,0,1,,
7050,-40,0,0,-40,1,-40,6050,1,1,1,2.00,0.20,8.00,2,200.00,-1.34,2.83,118.57,,201.47,1.70,-2.30,51.40,-69.00,-48.00,-220.00,122.00,144.00,50.00,5.00,25.90,25.90,21.00,-1,318.00,1.40,1,0,0,0,0,9.08,1,0,1,,
8050,-40,0,0,-40,0,-1405,0,1,1,1,2.00,0.20,8.00,2,200.00,0.75,2.88,132.93,,198.98,0.82,-1.00,51.60,-69.00,-48.00,-220.00,122.00,144.00,50.00,5.00,25.90,25.90,20.00,-1,319.00,1.40,1,0,0,0,0,9.08,1,0,1,,
9050,-80,0,0,-80,0,-915,0,1,1,1,2.00,0.20,8.00,2,200.00,3.85,5.72,144.03,,196.13,0.69,-1.36,49.43,-69.00,-48.00,-220.00,122.00,144.00,50.00,5.00,25.90,25.90,20.00,-1,321.00,1.40,1,0,0,0,0,9.08,1,0,1,,
10050,-120,0,0,-120,0,-526,0,1,1,1,2.00,0.20,8.00,2,200.00,6.97,11.30,152.73,,193.30,1.67,-2.37,50.74,-69.00,-48.00,-220.00,122.00,144.00,50.00,5.00,25.90,25.90,21.00,-1,321.00,1.30,1,0,0,0,0,9.08,1,0,1,,
11051,-153,0,0,-153,0,-303,0,1,1,1,2.00,0.20,8.00,2,200.00,8.92,19.44,159.49,,190.86,1.26,-1.78,48.86,-69.00,-48.00,-220.00,122.00,144.00,50.00,5.00,25.90,25.90,20.00,-1,321.00,1.30,1,0,0,0,0.28.0,2.00,86,14886,-,-40,-200,12,14500,5.,2525.20.0,-,11,00,0,0,9.08,1,0,1,,
12050,-188,0,0,-188,0,-157,0,1,1,1,2.00,0.20,8.00,2,200.00,12.72,19.44,164.68,,186.93,1.10,-0.41,51.90,-69.00,-48.00,-220.00,122.00,144.00,50.00,5.00,25.90,25.90,20.00,-1,325.00,1.30,1,0,0,0,0,16.76,1,0,1,,
13050,-170,0,0,-170,2,-42,0,1,1,1,2.00,0.20,8.00,2,200.00,16.00,19.44,168.04,,184.09,0.42,-0.90,48.81,-69.00,-48.00,-220.00,122.00,144.00,50.00,5.00,25.90,25.90,20.00,-1,327.00,1.50,1,0,0,0,0,16.76,1,0,1,,
14050,-127,0,0,-127,2,31,0,1,1,1,2.00,0.20,8.00,2,200.00,24.30,19.44,170.11,,174.71,0.58,0.88,50.77,-69.00,-48.00,-220.00,122.00,144.00,50.00,5.00,25.90,25.90,20.00,-1,330.00,1.50,1,0,0,0,0,16.76,1,0,1,,
15050,-81,0,0,-81,2,65,0,1,1,1,2.00,0.20,8.00,2,200.00,31.28,19.44,170.28,,169.04,0.80,-1.67,49.44,-69.00,-48.00,-220.00,122.00,144.00,50.00,5.00,25.90,25.90,21.00,-1,331.00,0.90,1,0,0,0,0,16.76,1,0,1,,
16050,-39,0,0,-39,2,81,0,1,1,1,2.00,0.20,8.00,2,200.00,35.10,19.44,169.45,,165.39,0.20,-1.79,48.83,-69.00,-48.00,-220.00,122.00,144.00,50.00,4.80,25.90,25.90,20.00,-1,335.00,0.90,1,0,0,0,0,9.20,1,0,1,,
17069,6,0,0,6,2,87,0,1,1,1,2.00,0.20,8.00,2,200.00,37.86,19.44,168.52,,161.37,2.32,-0.36,24.00,-69.00,-48.00,-220.00,122.00,144.00,50.00,4.70,25.90,25.90,20.00,-1,337.00,0.90,1,0,0,0,0,9.20,1,0,1,,
18050,51,0,0,51,2,102,0,1,1,1,2.00,0.20,8.00,2,200.00,39.96,19.44,166.99,,159.18,2.79,-2.84,48.25,-69.00,-48.00,-220.00,122.00,144.00,50.00,4.70,25.90,25.90,21.00,-1,337.00,1.10,1,0,0,0,0,9.20,1,0,1,,
19068,86,0,0,86,0,86,19068,1,1,1,2.00,0.20,8.00,2,200.00,37.21,19.44,166.09,,161.59,2.97,-0.12,24.01,-69.00,-48.00,-220.00,122.00,144.00,50.00,4.60,25.90,25.90,21.00,-1,341.00,1.10,1,0,0,0,0,9.20,1,0,1,,
20050,87,0,0,87,1,85,19068,1,1,1,2.00,0.20,8.00,2,200.00,38.48,19.44,165.23,,161.09,3.21,-3.34,48.61,-69.00,-48.00,-220.00,122.00,144.00,50.00,4.60,25.90,25.90,21.00,-1,342.00,1.10,1,0,0,0,0,9.20,1,0,1,,
21055,87,0,0,87,0,75,0,1,1,1,2.00,0.20,8.00,2,200.00,35.59,19.44,164.74,,164.72,3.41,-2.81,148.10,-69.00,-48.00,-220.00,122.00,144.00,50.00,4.50,25.90,25.90,21.00,-1,341.00,1.20,1,0,0,0,0,9.20,1,0,1,,
22050,75,0,0,75,1,75,21550,1,1,1,2.00,0.20,8.00,2,200.00,35.94,19.44,164.67,,164.13,4.28,-3.68,48.25,-69.00,-48.00,-220.00,122.00,144.00,50.00,4.50,25.90,25.90,21.00,-1,341.00,1.20,1,0,0,0,0,9.20,1,0,1,,
23050,57,0,0,57,0,1,0,1,1,1,0.00,0.20,8.00,2,200.00,31.56,19.44,164.94,,167.96,3.13,-2.03,95.38,-69.00,-48.00,-220.00,122.00,144.00,50.00,4.40,25.90,25.90,21.00,-1,341.00,1.20,1,0,0,0,0,9.20,1,0,1,,
24050,13,0,0,13,0,1,0,1,1,1,0.00,0.20,8.00,2,200.00,31.75,19.44,165.49,,168.30,3.91,-3.22,51.42,-69.00,-48.00,-220.00,122.00,144.00,50.00,4.40,25.90,25.90,21.00,-1,341.00,1.20,1,0,0,0,0,9.20,1,0,1,,
25050,1,0,0,1,1,1,24400,1,1,1,0.00,0.20,8.00,2,200.00,32.07,35.77,165.99,,167.88,3.89,-1.90,49.24,-69.00,-48.00,-220.00,122.00,144.00,50.00,4.30,25.90,25.90,20.00,-1,341.00,1.20,1,0,0,0,0,187.33,1,0,1,,
26050,6,0,0,6,2,12,0,1,1,1,0.00,0.20,8.00,2,200.00,33.87,68.13,166.26,,166.20,2.45,-3.12,51.27,-69.00,-48.00,-220.00,122.00,144.00,50.00,4.30,25.90,25.90,21.00,-1,339.00,1.10,1,0,0,0,0,187.33,1,0,1,,
27051,11,0,0,11,1,11,26400,1,1,1,0.00,0.20,8.00,2,200.00,31.32,99.00,166.74,,168.63,2.92,-1.48,49.42,-69.00,-48.00,-220.00,122.00,144.00,50.00,4.10,25.90,25.90,21.00,-1,340.00,1.10,1,0,0,0,0,16.61,1,0,1,,
28050,19,0,0,19,1,19,27950,1,1,1,0.00,0.20,8.00,2,200.00,30.75,129.14,167.20,,169.31,2.53,-3.09,50.77,-69.00,-48.00,-220.00,122.00,144.00,50.00,4.10,25.90,25.90,21.00,-1,339.00,1.10,1,0,0,0,0,16.61,1,0,1,,
29050,24,0,0,24,1,30,28850,1,1,1,0.00,0.20,1.00,2,200.00,28.81,158.39,167.78,,171.33,2.69,-1.98,49.60,-69.00,-48.00,-220.00,122.00,144.00,50.00,4.00,25.90,25.90,20.00,-1,337.00,1.10,1,0,0,0,0,16.61,1,0,1,,
30068,30,0,0,30,2,35,0,1,1,1,0.00,0.20,1.00,2,200.00,28.23,186.33,168.51,,170.88,3.57,-1.48,24.27,-69.00,-48.00,-220.00,122.00,144.00,50.00,4.00,25.90,25.90,20.00,-1,337.00,1.10,1,0,0,0,0,16.61,1,0,1,,
31050,35,0,0,35,2,42,0,1,1,1,0.00,0.20,1.00,2,200.00,30.06,215.83,168.83,,169.90,2.57,-1.88,49.41,-69.00,-48.00,-220.00,122.00,144.00,50.00,3.90,25.90,25.90,21.00,-1,335.00,1.10,1,0,0,0,0,11.16,1,0,1,,
32050,41,0,0,41,2,48,0,1,1,1,0.00,0.20,1.00,2,200.00,28.72,246.01,168.94,,170.84,2.37,-0.93,23.37,-69.00,-48.00,-220.00,122.00,144.00,50.00,3.90,25.90,25.90,21.00,-1,335.00,0.80,1,0,0,0,0,11.16,1,0,1,,
33050,47,0,0,47,2,53,0,1,1,1,0.00,0.20,1.00,2,200.00,28.38,274.23,169.48,,171.40,2.74,-1.89,50.74,-69.00,-48.00,-220.00,122.00,144.00,50.00,3.80,25.90,25.90,20.00,-1,335.00,0.80,1,0,0,0,0,11.34,1,0,1,,
34050,52,0,0,52,2,58,0,1,1,1,0.00,0.20,1.00,2,200.00,26.37,300.68,170.03,,173.42,3.01,-2.43,99.84,-69.00,-48.00,-220.00,122.00,144.00,50.00,3.80,25.90,25.90,20.00,-1,335.00,0.80,1,0,0,0,0,11.34,1,0,1,,
35050,57,0,0,57,1,64,34400,1,1,1,0.00,0.20,1.00,2,200.00,26.20,327.43,170.56,,173.87,2.57,-2.15,51.04,-69.00,-48.00,-220.00,122.00,144.00,50.00,3.80,25.90,25.90,21.00,-1,333.00,0.80,1,0,0,0,0,11.34,1,0,1,,
36050,65,0,0,65,1,65,35700,1,1,1,0.00,0.20,1.00,2,200.00,23.78,352.63,171.30,,176.17,2.23,-2.13,48.62,-69.00,-48.00,-220.00,122.00,144.00,50.00,3.70,25.90,25.90,20.00,-1,334.00,0.80,1,0,0,0,0,11.34,1,0,1,,
37050,69,0,0,69,1,73,36900,1,1,1,0.00,0.20,1.00,2,200.00,23.88,376.11,172.19,,176.03,2.97,-1.98,51.38,-69.00,-48.00,-220.00,122.00,144.00,50.00,3.70,25.90,25.90,20.00,-1,333.00,0.80,1,0,0,0,0,11.34,1,0,1,,
38050,74,0,0,74,1,77,37950,1,1,1,0.00,0.20,1.00,2,200.00,22.29,398.75,173.03,,177.37,2.44,-1.41,48.81,-69.00,-48.00,-220.00,122.00,144.00,50.00,3.70,25.90,25.90,20.00,-1,333.00,0.80,1,0,0,0,0,11.34,1,0,1,,
39050,79,0,0,79,1,79,38950,1,1,1,0.00,0.20,1.00,2,200.00,19.47,419.27,174.00,,180.69,2.28,-2.08,50.71,-69.00,-48.00,-220.00,122.00,144.00,50.00,3.70,25.90,25.90,21.00,-1,332.00,0.80,1,0,0,0,0,186.99,1,0,1,,
40050,79,0,0,79,1,84,38950,1,1,1,0.00,0.20,1.00,2,200.00,18.03,437.54,175.22,,182.33,2.35,-2.49,50.74,-69.00,-48.00,-220.00,122.00,144.00,50.00,3.60,25.90,25.90,19.00,-1,330.00,0.70,1,0,0,0,0,11.40,1,0,1,,
41069,83,0,0,83,1,83,40350,1,1,1,0.00,0.20,1.00,2,200.00,15.46,453.52,176.67,,184.91,2.49,-2.48,23.51,-69.00,-48.00,-220.00,122.00,144.00,50.00,3.60,25.90,25.90,19.00,-1,329.00,0.70,1,0,0,0,0,11.40,1,0,1,,
42050,87,0,0,87,1,87,41900,1,1,1,0.00,0.20,1.00,2,200.00,11.78,466.49,178.36,,188.39,1.93,-2.06,51.40,-69.00,-48.00,-220.00,122.00,144.00,50.00,3.60,25.90,25.90,19.00,-1,328.00,0.70,1,0,0,0,0,11.40,1,0,1,,
43069,87,0,0,87,2,93,0,1,1,1,0.00,0.20,1.00,2,200.00,13.27,479.73,179.88,,187.22,2.47,-2.60,23.56,-69.00,-48.00,-220.00,122.00,144.00,50.00,3.60,25.90,25.90,20.00,-1,326.00,1.50,1,0,0,0,0,9.24,1,0,1,,
44050,92,0,0,92,1,92,43508,1,1,1,2.00,0.20,1.00,2,200.00,6.62,487.20,181.79,,193.53,2.04,-2.43,50.80,-69.00,-48.00,-220.00,122.00,144.00,50.00,3.60,25.90,25.90,20.00,-1,324.00,1.50,1,0,0,0,0,186.51,1,0,1,,
45054,102,0,0,102,1,102,45054,1,1,1,2.00,0.20,1.00,2,200.00,3.46,491.89,184.00,,196.63,2.05,-1.46,148.37,-69.00,-48.00,-220.00,122.00,144.00,50.00,3.60,25.90,25.90,21.00,-1,323.00,1.50,1,0,0,0,0,186.51,1,0,1,,
46050,102,0,0,102,1,102,45054,1,1,1,2.00,0.20,1.00,2,200.00,3.22,494.83,186.22,,196.89,2.63,-1.89,51.40,-69.00,-48.00,-220.00,122.00,144.00,50.00,3.60,25.90,25.90,21.00,-1,320.00,1.30,1,0,0,0,0,35.45,1,0,1,,
47050,96,0,0,96,1,96,46750,1,1,1,2.00,0.20,1.00,2,200.00,0.29,495.34,188.36,,200.04,1.87,-1.60,93.18,-69.00,-48.00,-220.00,122.00,144.00,50.00,3.60,25.90,25.90,20.00,-1,317.00,1.30,1,0,0,0,0,16.61,1,0,1,,
48050,87,0,0,87,1,87,47950,1,1,1,2.00,0.20,1.00,2,200.00,-4.11,491.86,190.79,,204.08,2.59,-1.90,48.81,-69.00,-48.00,-220.00,122.00,144.00,50.00,3.60,25.90,25.90,21.00,-1,316.00,1.30,1,0,0,0,0,16.61,1,0,1,,
49056,87,0,0,87,0,82,0,1,1,1,2.00,0.20,1.00,2,200.00,-4.67,487.33,193.14,,204.80,2.25,-2.42,148.37,-69.00,-48.00,-220.00,122.00,144.00,50.00,3.70,25.90,25.90,21.00,-1,314.00,1.10,1,0,0,0,0,16.61,1,0,1,,
50050,82,0,0,82,0,73,0,1,1,1,2.00,0.20,1.00,2,200.00,-8.03,480.03,195.50,,207.82,1.76,-1.06,48.82,-69.00,-48.00,-220.00,122.00,144.00,50.00,3.70,25.90,25.90,21.00,-1,312.00,1.10,1,0,0,0,0,12.10,1,0,1,,
51050,73,0,0,73,1,73,50450,1,1,1,2.00,0.20,1.00,2,200.00,-8.75,471.92,197.63,,209.06,3.10,-2.38,93.18,-69.00,-48.00,-220.00,122.00,144.00,50.00,3.80,25.90,25.90,21.00,-1,310.00,1.10,1,0,0,0,0,12.10,1,0,1,,
52050,73,0,0,73,0,68,0,1,1,1,2.00,0.20,1.00,2,200.00,-9.93,462.07,199.70,,210.20,2.70,-2.24,48.82,-69.00,-48.00,-220.00,122.00,144.00,50.00,3.80,25.90,25.90,21.00,-1,308.00,0.80,1,0,0,0,0,9.24,1,0,1,,
53050,59,0,0,59,1,59,52950,1,1,1,2.00,0.20,1.00,2,200.00,-13.45,448.85,201.86,,213.60,2.31,-2.33,95.57,-69.00,-48.00,-220.00,122.00,144.00,50.00,3.90,25.90,25.90,20.00,-1,307.00,0.80,1,0,0,0,0,9.24,1,0,1,,
54050,59,0,0,59,1,52,52950,1,1,1,2.00,0.20,1.00,2,200.00,-14.98,434.30,203.99,,214.99,1.96,-1.47,48.23,-69.00,-48.00,-220.00,122.00,144.00,50.00,3.90,25.90,25.90,21.00,-1,305.00,0.80,1,0,0,0,0,9.24,1,0,1,,
55050,53,0,0,53,0,46,0,1,1,1,2.00,0.20,1.00,2,200.00,-16.27,418.19,206.08,,216.19,2.47,-2.65,51.94,-69.00,-48.00,-220.00,122.00,144.00,50.00,3.90,25.90,25.90,20.00,-1,304.00,0.60,1,0,0,0,0,9.24,1,0,1,,
56050,46,0,0,46,1,41,55350,1,1,1,2.00,0.20,1.00,2,200.00,-17.63,400.79,207.97,,217.63,2.80,-2.15,51.40,-69.00,-48.00,-220.00,122.00,144.00,50.00,3.90,25.90,25.90,20.00,-1,304.00,0.60,1,0,0,0,0,186.78,1,0,1,,
57050,41,0,0,41,1,41,56300,1,1,1,2.00,0.20,1.00,2,200.00,-17.96,383.08,209.62,,218.13,2.87,-2.61,48.85,-69.00,-48.00,-220.00,122.00,144.00,50.00,3.90,25.90,25.90,21.00,-1,304.00,0.60,1,0,0,0,0,186.78,1,0,1,,
58050,35,0,0,35,1,35,57800,1,1,1,2.00,0.20,1.00,2,200.00,-19.43,363.87,211.24,,219.40,2.86,-2.25,51.38,-69.00,-48.00,-220.00,122.00,144.00,50.00,3.90,25.90,25.90,21.00,-1,302.00,1.20,1,0,0,0,0,9.08,1,0,1,,
59051,28,0,0,28,1,28,58800,1,1,1,2.00,0.20,1.00,2,200.00,-19.74,344.03,212.67,,219.86,3.30,-2.61,48.81,-69.00,-48.00,-220.00,122.00,144.00,50.00,4.00,25.90,25.90,20.00,-1,303.00,1.20,1,0,0,0,0,186.81,1,0,1,,
60050,28,0,0,28,0,22,0,1,1,1,2.00,0.20,1.00,2,200.00,-20.60,323.66,213.95,,220.71,3.06,-2.86,50.73,-69.00,-48.00,-220.00,122.00,144.00,50.00,4.00,25.90,25.90,20.00,-1,302.00,1.00,1,0,0,0,0,186.81,1,0,1,,
61050,22,0,0,22,1,15,60309,1,1,1,2.00,0.20,1.00,2,200.00,-21.86,302.13,215.19,,221.99,3.28,-2.57,48.84,-69.00,-48.00,-220.00,122.00,144.00,50.00,4.10,25.90,25.90,20.00,-1,304.00,1.00,1,0,0,0,0,186.81,1,0,1,,
62068,15,0,0,15,0,9,0,1,1,1,2.00,0.20,1.00,2,200.00,-22.45,280.15,216.37,,222.33,2.52,-2.62,24.14,-69.00,-48.00,-220.00,122.00,144.00,50.00,4.10,25.90,25.90,20.00,-1,303.00,1.00,1,0,0,0,0,186.81,1,0,1,,
63050,10,0,0,10,1,10,62300,1,1,1,2.00,0.20,1.00,2,200.00,-21.80,257.98,217.39,,221.75,3.02,-2.07,49.44,-69.00,-48.00,-220.00,122.00,144.00,50.00,4.10,25.90,25.90,20.00,-1,302.00,0.80,1,0,0,0,0,186.81,1,0,1,,
64055,5,0,0,5,1,5,63800,1,1,1,2.00,0.20,1.00,2,200.00,-22.01,236.07,218.16,,221.94,2.56,-2.77,147.84,-69.00,-48.00,-220.00,122.00,144.00,50.00,4.10,25.90,25.90,21.00,-1,299.00,0.80,1,0,0,0,0,8.84,1,0,1,,
65050,1,0,0,1,1,1,64750,1,1,1,2.00,0.20,1.00,2,200.00,-22.31,213.80,218.84,,222.26,2.86,-1.85,50.77,-69.00,-48.00,-220.00,122.00,144.00,50.00,4.10,25.90,25.90,20.00,-1,302.00,0.80,1,0,0,0,0,8.84,1,0,1,,
66050,-3,0,0,-3,1,-3,214,1,1,1,2.00,0.20,1.00,2,200.00,-22.48,191.31,219.50,,222.40,2.49,-2.56,95.27,-69.00,-48.00,-220.00,122.00,144.00,50.00,4.10,25.90,25.90,21.00,-1,300.00,0.80,1,0,0,0,0,8.84,1,0,1,,
67050,-7,0,0,-7,1,-7,1214,1,1,1,2.00,0.20,1.00,2,200.00,-21.72,169.04,220.00,,221.62,2.58,-1.60,50.76,-69.00,-48.00,-220.00,122.00,144.00,50.00,4.10,25.90,25.90,20.00,-1,300.00,0.80,1,0,0,0,0,8.84,1,0,1,,
68050,-7,0,0,-7,1,-7,1214,1,1,1,2.00,0.20,1.00,2,200.00,-20.14,148.25,220.22,,220.25,2.23,-1.97,95.31,-69.00,-48.00,-220.00,122.00,144.00,50.00,4.20,25.90,25.90,21.00,-1,298.00,0.80,1,0,0,0,0,10.52,1,0,1,,
69050,-7,0,0,-7,0,-12,0,1,1,1,2.00,0.20,1.00,2,200.00,-19.73,128.23,220.22,,219.60,2.50,-2.22,50.77,-69.00,-48.00,-220.00,122.00,144.00,50.00,4.20,25.90,25.90,21.00,-1,298.00,0.80,1,0,0,0,0,10.52,1,0,1,,
70050,-11,0,0,-11,0,-17,0,1,1,1,2.00,0.20,1.00,2,200.00,-19.95,108.16,220.15,,219.97,3.12,-2.78,48.85,-69.00,-48.00,-220.00,122.00,144.00,50.00,4.20,25.90,25.90,21.00,-1,299.00,0.80,1,0,0,0,0,10.52,1,0,1,,
71050,-16,0,0,-16,1,-16,4764,1,1,1,2.00,0.20,1.00,2,200.00,-19.30,88.80,220.08,,219.19,2.18,-2.10,51.40,-69.00,-48.00,-220.00,122.00,144.00,50.00,4.20,25.90,25.90,21.00,-1,299.00,0.80,1,0,0,0,0,9.08,1,0,1,,
72050,-22,0,0,-22,1,-22,6364,1,1,1,2.00,0.20,1.00,2,200.00,-19.12,69.35,219.98,,218.79,2.47,-2.19,51.41,-69.00,-48.00,-220.00,122.00,144.00,50.00,4.10,25.90,25.90,21.00,-1,301.00,0.80,1,0,0,0,0,9.08,1,0,1,,
73050,-22,0,0,-22,1,-29,6364,1,1,1,2.00,0.20,1.00,2,200.00,-20.05,49.71,219.84,,220.08,3.04,-2.79,48.84,-69.00,-48.00,-220.00,122.00,144.00,50.00,4.10,25.90,25.90,20.00,-1,300.00,0.80,1,0,0,0,0,9.08,1,0,1,,
74050,-28,0,0,-28,1,-28,7864,1,1,1,2.00,0.20,1.00,2,200.00,-17.96,31.51,219.60,,217.96,2.79,-2.91,52.09,-69.00,-48.00,-220.00,122.00,144.00,50.00,4.10,25.90,25.90,21.00,-1,299.00,0.80,1,0,0,0,0,9.08,1,0,1,,
75069,-28,0,0,-28,1,-28,7864,1,1,1,2.00,0.20,1.00,2,200.00,-16.25,15.09,219.13,,216.17,2.94,-2.27,23.56,-69.00,-48.00,-220.00,122.00,144.00,50.00,4.10,25.90,25.90,21.00,-1,300.00,0.90,1,0,0,0,0,9.08,1,0,1,,
76050,-28,0,0,-28,1,-28,7864,1,1,1,2.00,0.20,1.00,2,200.00,-16.48,-1.06,218.62,,216.55,2.50,-2.44,51.41,-69.00,-48.00,-220.00,122.00,144.00,50.00,4.10,25.90,25.90,21.00,-1,301.00,0.90,1,0,0,0,0,11.25,1,0,1,,
77069,-28,0,0,-28,1,-28,7864,1,1,1,2.00,0.20,1.00,2,200.00,-15.17,-16.61,218.12,,215.13,2.89,-1.67,23.56,-69.00,-48.00,-220.00,122.00,144.00,50.00,4.00,25.90,25.90,20.00,-1,302.00,0.90,1,0,0,0,0,11.25,1,0,1,,
78050,-28,0,0,-28,1,-28,7864,1,1,1,2.00,0.20,1.00,2,200.00,-12.67,-29.73,217.39,,212.58,2.93,-2.25,51.41,-69.00,-48.00,-220.00,122.00,144.00,50.00,4.00,25.90,25.90,21.00,-1,302.00,0.90,1,0,0,0,0,187.48,1,0,1,,
79055,-28,0,0,-28,1,-28,7864,1,1,1,2.00,0.20,1.00,2,200.00,-12.35,-41.67,216.46,,212.41,2.48,-2.39,146.03,-69.00,-48.00,-220.00,122.00,144.00,50.00,4.00,25.90,25.90,21.00,-1,304.00,0.90,1,0,0,0,0,9.45,1,0,1,,
80050,-32,0,0,-32,1,-32,14173,1,1,1,2.00,0.20,1.00,2,200.00,-11.50,-53.76,215.76,,211.32,2.20,-1.91,48.86,-69.00,-48.00,-220.00,122.00,144.00,50.00,4.00,25.90,25.90,20.00,-1,304.00,0.90,1,0,0,0,0,9.45,1,0,1,,
81050,-32,0,0,-32,1,-32,14173,1,1,1,2.00,0.20,1.00,2,200.00,-8.93,-64.00,214.83,,208.96,1.79,-1.78,93.39,-69.00,-48.00,-220.00,122.00,144.00,50.00,3.90,25.90,25.90,21.00,-1,304.00,0.90,1,0,0,0,0,9.45,1,0,1,,
82050,-32,0,0,-32,1,-32,14173,1,1,1,2.00,0.20,1.00,2,200.00,-9.88,-73.48,213.96,,210.10,2.66,-2.79,48.86,-69.00,-48.00,-220.00,122.00,144.00,50.00,3.90,25.90,25.90,20.00,-1,303.00,0.90,1,0,0,0,0,9.45,1,0,1,,
83050,-32,0,0,-32,1,-32,14173,1,1,1,2.00,0.20,1.00,2,200.00,-9.37,-83.51,213.26,,209.32,2.84,-2.41,93.14,-69.00,-48.00,-220.00,122.00,144.00,50.00,3.90,25.90,25.90,21.00,-1,304.00,0.90,1,0,0,0,0,9.24,1,0,1,,
84050,-32,0,0,-32,1,-32,14173,1,1,1,2.00,0.20,1.00,2,200.00,-8.51,-92.27,212.58,,208.49,2.43,-1.82,49.41,-69.00,-48.00,-220.00,122.00,144.00,50.00,3.90,25.90,25.90,20.00,-1,307.00,0.90,1,0,0,0,0,9.24,1,0,1,,
85050,-32,0,0,-32,1,-33,14173,1,1,1,2.00,0.20,1.00,2,200.00,-7.05,-99.64,211.73,,206.85,1.68,-1.07,50.74,-69.00,-48.00,-220.00,122.00,144.00,50.00,3.90,25.90,25.90,21.00,-1,307.00,0.90,1,0,0,0,0,9.24,1,0,1,,
86050,-32,0,0,-32,1,-32,14173,1,1,1,2.00,0.20,1.00,2,200.00,-6.94,-106.17,210.83,,207.14,2.72,-2.50,48.23,-69.00,-48.00,-220.00,122.00,144.00,50.00,3.90,25.90,25.90,20.00,-1,307.00,0.90,1,0,0,0,0,9.24,1,0,1,,
87050,-32,0,0,-32,1,-30,14173,1,1,1,2.00,0.20,1.00,2,200.00,-4.50,-111.19,209.93,,204.30,2.50,-2.05,51.82,-69.00,-48.00,-220.00,122.00,144.00,50.00,3.90,25.90,25.90,21.00,-1,308.00,0.90,1,0,0,0,0,9.24,1,0,1,,
88050,-32,0,0,-32,1,-32,14173,1,1,1,2.00,0.20,1.00,2,200.00,-3.83,-115.01,208.91,,203.71,2.00,-1.89,50.74,-69.00,-48.00,-220.00,122.00,144.00,50.00,3.90,25.90,25.90,20.00,-1,308.00,0.90,1,0,0,0,0,9.24,1,0,1,,
89050,-32,0,0,-32,1,-32,14173,1,1,1,2.00,0.20,1.00,2,200.00,-4.20,-118.71,208.00,,203.85,1.31,-0.39,48.69,-69.00,-48.00,-220.00,122.00,144.00,50.00,3.90,25.90,25.90,20.00,-1,311.00,0.90,1,0,0,0,0,9.85,1,0,1,,
90050,-27,0,0,-27,1,-27,24214,1,1,1,2.00,0.20,1.00,2,200.00,-2.10,-120.59,207.01,,202.21,2.64,-2.77,51.44,-69.00,-48.00,-220.00,122.00,144.00,50.00,3.80,25.90,25.90,20.00,-1,312.00,1.00,1,0,0,0,0,9.85,1,0,1,,
91051,-27,0,0,-27,1,-25,24214,1,1,1,2.00,0.20,1.00,2,200.00,-0.78,-122.16,206.12,,200.62,2.19,-2.07,48.26,-69.00,-48.00,-220.00,122.00,144.00,50.00,3.80,26.00,26.00,21.00,-1,313.00,1.00,1,0,0,0,0,9.85,1,0,1,,
92050,-27,0,0,-27,1,-27,24214,1,1,1,2.00,0.20,1.00,2,200.00,0.03,-122.18,205.10,,200.01,2.53,-2.19,51.41,-69.00,-48.00,-220.00,122.00,144.00,50.00,3.80,26.00,26.00,21.00,-1,315.00,1.20,1,0,0,0,0,9.85,1,0,1,,
93050,-22,0,0,-22,1,-16,27314,1,1,1,2.00,0.20,1.00,2,200.00,3.01,-120.20,204.00,,196.88,1.44,-1.49,50.00,-69.00,-48.00,-220.00,122.00,144.00,50.00,3.80,26.00,26.00,21.00,-1,316.00,1.20,1,0,0,0,0,9.85,1,0,1,,
94068,-17,0,0,-17,1,-17,27814,1,1,1,2.00,0.20,1.00,2,200.00,3.80,-116.65,202.75,,196.29,3.33,-2.92,23.85,-69.00,-48.00,-220.00,122.00,144.00,50.00,3.80,26.00,26.00,20.00,-1,315.00,1.20,1,0,0,0,0,9.85,1,0,1,,
95050,-17,0,0,-17,1,-17,27814,1,1,1,2.00,0.20,1.00,2,200.00,3.45,-113.37,201.71,,196.44,1.34,-1.47,49.43,-69.00,-48.00,-220.00,122.00,144.00,50.00,3.80,26.00,26.00,20.00,-1,315.00,1.20,1,0,0,0,0,9.85,1,0,1,,
96069,-13,0,0,-13,1,-13,30264,1,1,1,2.00,0.20,1.00,2,200.00,4.11,-109.23,200.78,,195.74,1.91,-2.14,23.52,-69.00,-48.00,-220.00,122.00,144.00,50.00,3.80,26.00,26.00,21.00,-1,316.00,1.30,1,0,0,0,0,9.85,1,0,1,,
97050,-13,0,0,-13,1,-11,30264,1,1,1,2.00,0.20,1.00,2,200.00,4.63,-104.83,199.94,,195.22,2.62,-1.76,51.43,-69.00,-48.00,-220.00,122.00,144.00,50.00,3.80,26.00,26.00,20.00,-1,316.00,1.30,1,0,0,0,0,9.85,1,0,1,,
98055,-13,0,0,-13,2,-7,0,1,1,1,2.00,0.20,1.00,2,200.00,6.02,-99.74,199.14,,194.18,2.97,-3.07,148.99,-69.00,-48.00,-220.00,122.00,144.00,50.00,3.70,26.00,26.00,20.00,-1,316.00,1.40,1,0,0,0,0,9.85,1,0,1,,
99050,-7,0,0,-7,1,-7,32870,1,1,1,2.00,0.20,1.00,2,200.00,4.89,-94.61,198.38,,195.20,1.58,-1.77,51.39,-69.00,-48.00,-220.00,122.00,144.00,50.00,3.70,26.00,26.00,21.00,-1,318.00,1.40,1,0,0,0,0,9.85,1,0,1,,
100050,-7,0,0,-7,1,-7,32870,1,1,1,2.00,0.20,1.00,2,200.00,6.43,-89.34,197.75,,193.78,2.77,-1.99,98.12,-69.00,-48.00,-220.00,122.00,144.00,50.00,3.70,26.00,26.00,20.00,-1,317.00,1.40,1,0,0,0,1,9.85,1,0,1,,
101050,-7,0,0,-7,1,-7,32870,1,1,1,2.00,0.20,1.00,2,200.00,5.72,-83.50,197.13,,194.18,1.85,-1.82,52.08,-69.00,-48.00,-220.00,122.00,144.00,50.00,3.70,26.00,26.00,20.00,-1,317.00,1.30,1,0,0,0,1,9.85,1,0,1,,
102050,-3,0,0,-3,1,-3,36314,1,1,1,2.00,0.20,1.00,2,200.00,5.63,-77.39,196.57,,194.35,2.15,-2.00,100.44,-69.00,-48.00,-220.00,122.00,144.00,50.00,3.70,26.00,26.00,20.00,-1,317.00,1.30,1,0,0,0,1,9.85,1,0,1,,
103050,-3,0,0,-3,1,-3,36314,1,1,1,2.00,0.20,1.00,2,200.00,7.91,-70.47,196.15,,191.34,1.62,-0.74,50.68,-69.00,-48.00,-220.00,122.00,144.00,50.00,3.70,26.00,26.00,20.00,-1,318.00,1.30,1,0,0,0,1,9.85,1,0,1,,
104050,3,0,0,3,1,3,38364,1,1,1,2.00,0.20,4.00,2,200.00,7.38,-62.88,195.43,,192.70,1.86,-2.13,51.60,-69.00,-48.00,-220.00,122.00,144.00,50.00,3.70,26.00,26.00,20.00,-1,317.00,1.20,1,0,0,0,1,9.85,1,0,1,,
105050,3,0,0,3,1,3,38364,1,1,1,2.00,0.20,4.00,2,200.00,6.64,-55.49,194.95,,193.25,1.47,-1.35,48.83,-69.00,-48.00,-220.00,122.00,144.00,50.00,3.70,26.00,26.00,21.00,-1,318.00,1.20,1,0,0,0,1,9.85,1,0,1,,
106050,3,0,0,3,1,3,38364,1,1,1,2.00,0.20,4.00,2,200.00,8.51,-47.61,194.50,,191.34,1.98,-1.60,52.04,-69.00,-48.00,-220.00,122.00,144.00,50.00,3.70,26.00,26.00,20.00,-1,317.00,1.20,1,0,0,0,1,9.85,1,0,1,,
107051,8,0,0,8,1,8,41414,1,1,1,2.00,0.20,4.00,2,200.00,6.31,-39.96,194.01,,193.86,2.48,-2.72,48.83,-69.00,-48.00,-220.00,122.00,144.00,50.00,3.80,26.00,26.00,21.00,-1,319.00,1.20,1,0,0,0,1,9.85,1,0,1,,
108050,8,0,0,8,1,8,41414,1,1,1,2.00,0.20,4.00,2,200.00,7.62,-31.53,193.62,,192.55,1.23,-1.70,52.06,-69.00,-48.00,-220.00,122.00,144.00,50.00,3.80,26.00,26.00,20.00,-1,320.00,1.20,1,0,0,0,1,9.85,1,0,1,,
109069,8,0,0,8,1,8,41414,1,1,1,2.00,0.20,4.00,2,200.00,6.87,-24.73,193.51,,193.02,2.49,-2.57,23.69,-69.00,-48.00,-220.00,122.00,144.00,50.00,3.80,26.00,26.00,21.00,-1,319.00,1.40,1,0,0,0,1,9.85,1,0,1,,
110050,12,0,0,12,1,12,44264,1,1,1,2.00,0.20,4.00,2,200.00,8.88,-15.74,193.16,,191.36,2.42,-1.96,51.32,-69.00,-48.00,-220.00,122.00,144.00,50.00,3.80,26.00,26.00,21.00,-1,319.00,1.40,1,0,0,0,1,9.85,1,0,1,,
111069,12,0,0,12,1,12,44264,1,1,1,2.00,0.20,4.00,2,200.00,5.85,-9.08,193.08,,194.36,1.79,-2.32,23.55,-69.00,-48.00,-220.00,122.00,144.00,50.00,3.90,26.00,26.00,21.00,-1,320.00,1.40,1,0,0,0,1,9.85,1,0,1,,
112050,12,0,0,12,1,12,44264,1,1,1,2.00,0.20,4.00,2,200.00,8.14,-1.58,193.09,,191.95,2.05,-1.33,48.82,-69.00,-48.00,-220.00,122.00,144.00,50.00,3.90,26.00,26.00,20.00,-1,319.00,0.60,1,0,0,0,1,9.85,1,0,1,,
113055,12,0,0,12,1,12,44264,1,1,1,2.00,0.20,4.00,2,200.00,7.36,5.95,193.01,,192.59,1.29,-1.94,148.02,-69.00,-48.00,-220.00,122.00,144.00,50.00,3.90,26.00,26.00,21.00,-1,320.00,0.60,1,0,0,0,1,9.85,1,0,1,,
114050,12,0,0,12,2,18,0,1,1,1,2.00,0.20,4.00,2,200.00,8.49,13.64,192.91,,191.59,2.12,-1.63,48.81,-69.00,-48.00,-220.00,122.00,144.00,50.00,3.90,26.00,26.00,20.00,-1,321.00,0.60,1,0,0,0,0,187.45,1,0,1,,
115050,17,0,0,17,1,17,48870,1,1,1,2.00,0.20,4.00,2,200.00,5.21,19.95,192.90,,194.13,1.04,-1.27,99.52,-69.00,-48.00,-220.00,122.00,144.00,50.00,3.90,26.00,26.00,20.00,-1,322.00,0.80,1,0,0,0,0,187.45,1,0,1,,
116050,17,0,0,17,1,17,48870,1,1,1,2.00,0.20,4.00,2,200.00,7.39,27.01,192.96,,192.48,1.72,-1.14,49.42,-69.00,-48.00,-220.00,122.00,144.00,50.00,3.90,26.00,26.00,20.00,-1,322.00,0.80,1,0,0,0,0,11.25,1,0,1,,
117050,21,0,0,21,1,21,51314,1,1,1,2.00,0.20,4.00,2,200.00,5.68,34.19,192.91,,194.72,1.73,-2.33,99.76,-69.00,-48.00,-220.00,122.00,144.00,50.00,3.90,26.00,26.00,21.00,-1,322.00,0.80,1,0,0,0,0,11.25,1,0,1,,
118050,21,0,0,21,1,21,51314,1,1,1,2.00,0.20,4.00,2,200.00,5.61,40.53,193.08,,194.53,1.78,-2.25,49.43,-69.00,-48.00,-220.00,122.00,144.00,50.00,4.00,26.00,26.00,20.00,-1,321.00,1.00,1,0,0,0,0,0.55,1,0,1,,
119050,21,0,0,21,1,20,51314,1,1,1,2.00,0.20,4.00,2,200.00,5.87,46.67,193.18,,194.10,1.59,-1.53,51.17,-69.00,-48.00,-220.00,122.00,144.00,50.00,4.00,26.00,26.00,21.00,-1,320.00,1.00,1,0,0,0,0,8.35,1,0,1,,
120050,21,0,0,21,1,21,51314,1,1,1,2.00,0.20,4.00,2,200.00,6.60,53.12,193.29,,193.22,1.15,-0.65,51.40,-69.00,-48.00,-220.00,122.00,144.00,50.00,4.00,26.00,26.00,21.00,-1,320.00,1.00,1,0,0,0,0,8.35,1,0,1,,
121050,21,0,0,21,1,21,51314,1,1,1,2.00,0.20,4.00,2,200.00,4.59,58.25,193.55,,195.48,1.03,-1.19,48.62,-69.00,-48.00,-220.00,122.00,144.00,50.00,4.00,26.00,26.00,21.00,-1,319.00,1.10,1,0,0,0,0,8.35,1,0,1,,
122050,21,0,0,21,1,21,51314,1,1,1,2.00,0.20,4.00,2,200.00,4.35,62.69,193.90,,195.60,1.85,-1.63,51.38,-69.00,-48.00,-220.00,122.00,144.00,50.00,4.00,26.00,26.00,21.00,-1,319.00,1.10,1,0,0,0,0,8.35,1,0,1,,
123051,16,0,0,16,1,16,57233,1,1,1,2.00,0.20,4.00,2,200.00,1.87,64.74,194.52,,197.80,0.86,-0.26,48.86,-69.00,-48.00,-220.00,122.00,144.00,50.00,4.00,26.00,26.00,20.00,-1,320.00,1.10,1,0,0,0,0,8.35,1,0,1,,
124050,15,0,0,15,1,15,57233,1,1,1,2.00,0.20,4.00,2,200.00,0.29,65.61,195.21,,199.86,1.28,-2.06,50.75,-69.00,-48.00,-220.00,122.00,144.00,50.00,4.10,26.00,26.00,20.00,-1,320.00,1.20,1,0,0,0,0,8.35,1,0,1,,
125050,15,0,0,15,1,16,57233,1,1,1,2.00,0.20,4.00,2,200.00,2.49,67.44,195.76,,197.48,1.39,-1.16,48.81,-69.00,-48.00,-220.00,122.00,144.00,50.00,4.10,26.00,26.00,20.00,-1,319.00,1.20,1,0,0,0,0,8.35,1,0,1,,
126050,15,0,0,15,1,15,57233,1,1,1,2.00,0.20,4.00,2,200.00,2.70,69.73,196.10,,197.28,1.21,-1.74,51.41,-69.00,-48.00,-220.00,122.00,144.00,50.00,4.20,26.00,26.00,21.00,-1,319.00,1.20,1,0,0,0,0,8.35,1,0,1,,
127050,19,0,0,19,1,19,61219,1,1,1,2.00,0.20,4.00,2,200.00,2.58,72.81,196.24,,197.66,1.23,-1.58,49.38,-69.00,-48.00,-220.00,122.00,144.00,50.00,4.20,26.00,26.00,20.00,-1,319.00,1.20,1,0,0,0,0,8.35,1,0,1,,
128069,19,0,0,19,1,19,61219,1,1,1,2.00,0.20,4.00,2,200.00,1.74,74.33,196.60,,198.27,1.09,-1.55,23.56,-69.00,-48.00,-220.00,122.00,144.00,50.00,4.30,26.00,26.00,21.00,-1,317.00,1.20,1,0,0,0,0,8.35,1,0,1,,
129050,19,0,0,19,1,17,61219,1,1,1,2.00,0.20,4.00,2,200.00,1.69,75.99,196.85,,198.30,1.41,-1.88,50.74,-69.00,-48.00,-220.00,122.00,144.00,50.00,4.30,26.00,26.00,20.00,-1,319.00,1.20,1,0,0,0,0,8.35,1,0,1,,
130069,19,0,0,19,1,19,61219,1,1,1,2.00,0.20,4.00,2,200.00,2.49,78.61,197.04,,197.17,0.82,-0.12,23.70,-69.00,-48.00,-220.00,122.00,144.00,50.00,4.30,26.00,26.00,21.00,-1,317.00,1.20,1,0,0,0,0,8.35,1,0,1,,
131050,19,0,0,19,1,19,61219,1,1,1,2.00,0.20,4.00,2,200.00,2.36,81.16,197.09,,197.43,0.74,-1.34,52.04,-69.00,-48.00,-220.00,122.00,144.00,50.00,4.40,26.00,26.00,21.00,-1,317.00,1.20,1,0,0,0,0,8.35,1,0,1,,
132055,19,0,0,19,0,11,0,1,1,1,2.00,0.20,4.00,2,200.00,-1.31,80.74,197.49,,200.80,2.13,-1.86,148.28,-69.00,-48.00,-220.00,122.00,144.00,50.00,4.40,26.00,26.00,21.00,-1,316.00,1.20,1,0,0,0,0,187.18,1,0,1,,
133050,17,0,0,17,1,17,1828,1,1,1,2.00,0.20,4.00,2,200.00,0.76,81.92,197.77,,199.35,1.11,-1.30,52.07,-69.00,-48.00,-220.00,122.00,144.00,50.00,4.40,26.00,26.00,21.00,-1,318.00,1.20,1,0,0,0,0,187.18,1,0,1,,
134050,17,0,0,17,1,17,1828,1,1,1,2.00,0.20,4.00,2,200.00,0.52,82.20,198.13,,199.61,0.91,-1.16,93.28,-69.00,-48.00,-220.00,122.00,144.00,50.00,4.40,26.00,26.00,21.00,-1,318.00,1.20,1,0,0,0,0,34.69,1,0,1,,
135050,17,0,0,17,1,17,1828,1,1,1,2.00,0.20,4.00,2,200.00,0.43,82.45,198.40,,199.61,0.80,-0.97,51.41,-69.00,-48.00,-220.00,122.00,144.00,50.00,4.40,26.00,26.00,21.00,-1,317.00,1.10,1,0,0,0,0,16.61,1,0,1,,
136050,17,0,0,17,1,17,1828,1,1,1,2.00,0.20,4.00,2,200.00,-0.18,83.27,198.49,,199.73,1.52,-1.09,95.57,-69.00,-48.00,-220.00,122.00,144.00,50.00,4.40,26.00,26.00,20.00,-1,316.00,1.10,1,0,0,0,0,16.61,1,0,1,,
137050,17,0,0,17,1,17,1828,1,1,1,2.00,0.20,4.00,2,200.00,1.10,84.45,198.55,,199.07,1.52,-2.09,48.84,-69.00,-48.00,-220.00,122.00,144.00,50.00,4.50,26.00,26.00,20.00,-1,317.00,1.10,1,0,0,0,0,16.61,1,0,1,,
138050,17,0,0,17,1,11,1828,1,1,1,2.00,0.20,4.00,2,200.00,-1.68,83.15,198.98,,201.20,0.97,0.15,51.99,-69.00,-48.00,-220.00,122.00,144.00,50.00,4.50,26.00,26.00,20.00,-1,318.00,1.10,1,0,0,0,0,187.18,1,0,1,,
139051,15,0,0,15,1,18,7728,1,1,1,2.00,0.20,4.00,2,200.00,1.46,84.18,199.08,,198.26,0.70,-0.64,48.24,-69.00,-48.00,-220.00,122.00,144.00,50.00,4.50,26.00,26.00,20.00,-1,317.00,1.10,1,0,0,0,0,34.69,1,0,1,,
140050,15,0,0,15,1,15,7728,1,1,1,2.00,0.20,4.00,2,200.00,-0.72,84.09,199.10,,200.55,1.81,-1.94,51.40,-69.00,-48.00,-220.00,122.00,144.00,50.00,4.50,26.00,26.00,21.00,-1,317.00,1.20,1,0,0,0,0,16.61,1,0,1,,
141050,15,0,0,15,1,15,7728,1,1,1,2.00,0.20,4.00,2,200.00,0.56,84.09,199.30,,199.31,1.31,-0.82,48.83,-69.00,-48.00,-220.00,122.00,144.00,50.00,4.50,26.00,26.00,20.00,-1,317.00,1.20,1,0,0,0,0,16.61,1,0,1,,
142050,15,0,0,15,1,15,7728,1,1,1,2.00,0.20,4.00,2,200.00,1.21,85.40,199.25,,198.83,1.18,-1.60,51.38,-69.00,-48.00,-220.00,122.00,144.00,50.00,4.50,26.00,26.00,20.00,-1,318.00,1.20,1,0,0,0,0,9.08,1,0,1,,
143050,15,0,0,15,1,15,7728,1,1,1,2.00,0.20,4.00,2,200.00,0.60,86.12,199.21,,199.63,1.83,-1.78,49.44,-69.00,-48.00,-220.00,122.00,144.00,50.00,4.60,26.00,26.00,21.00,-1,318.00,1.20,1,0,0,0,0,9.08,1,0,1,,
144050,15,0,0,15,1,15,7728,1,1,1,2.00,0.20,4.00,2,200.00,-0.40,85.70,199.47,,200.05,1.72,-1.59,48.82,-69.00,-48.00,-220.00,122.00,144.00,50.00,4.70,26.00,26.00,21.00,-1,317.00,1.20,1,0,0,0,0,9.08,1,0,1,,
145069,15,0,0,15,1,15,7728,1,1,1,2.00,0.20,4.00,2,200.00,0.23,86.00,199.50,,199.99,1.85,-2.31,24.00,-69.00,-48.00,-220.00,122.00,144.00,50.00,4.70,26.00,26.00,21.00,-1,317.00,1.20,1,0,0,0,0,9.08,1,0,1,,
146050,15,0,0,15,1,15,7728,1,1,1,2.00,0.20,4.00,2,200.00,-0.32,85.38,199.72,,199.89,1.00,-0.98,48.83,-69.00,-48.00,-220.00,122.00,144.00,50.00,4.70,26.00,26.00,20.00,-1,317.00,1.20,1,0,0,0,0,9.08,1,0,1,,
147055,15,0,0,15,1,15,7728,1,1,1,2.00,0.20,4.00,2,200.00,1.56,86.78,199.56,,198.51,1.92,-1.77,148.10,-69.00,-48.00,-220.00,122.00,144.00,50.00,4.70,26.00,26.00,20.00,-1,318.00,1.20,1,0,0,0,0,9.08,1,0,1,,
148050,15,0,0,15,1,15,7728,1,1,1,2.00,0.20,4.00,2,200.00,-1.21,86.10,199.62,,201.51,2.26,-2.86,49.39,-69.00,-48.00,-220.00,122.00,144.00,50.00,4.70,26.00,26.00,21.00,-1,319.00,1.20,1,0,0,0,0,11.34,1,0,1,,
149050,15,0,0,15,1,15,7728,1,1,1,2.00,0.20,4.00,2,200.00,0.40,86.55,199.69,,199.68,2.37,-1.94,95.64,-69.00,-48.00,-220.00,122.00,144.00,50.00,4.70,26.00,26.00,21.00,-1,318.00,1.10,1,0,0,0,0,11.34,1,0,1,,
150050,15,0,0,15,2,57,0,1,1,1,2.00,0.20,4.00,2,220.00,21.10,86.63,199.68,,198.78,1.81,-2.07,48.84,-69.00,-48.00,-220.00,122.00,144.00,50.00,4.70,26.00,26.00,20.00,-1,318.00,1.10,1,0,0,0,0,12.10,1,0,1,,
151050,52,0,0,52,2,58,0,1,1,1,2.00,0.20,4.00,2,220.00,20.62,86.63,199.50,,199.56,0.59,-0.91,51.78,-69.00,-48.00,-220.00,122.00,144.00,50.00,4.70,26.00,26.00,20.00,-1,320.00,1.10,1,0,0,0,0,12.10,1,0,1,,
152050,57,0,0,57,1,57,20178,1,1,1,2.00,0.20,4.00,2,220.00,19.90,86.63,199.60,,200.11,2.25,-2.41,51.61,-69.00,-48.00,-220.00,122.00,144.00,50.00,4.60,26.00,26.00,20.00,-1,319.00,1.10,1,0,0,0,0,12.10,1,0,1,,
153050,57,0,0,57,0,50,0,1,1,1,2.00,0.20,4.00,2,220.00,16.86,86.63,199.82,,203.52,3.13,-3.13,48.34,-69.00,-48.00,-220.00,122.00,144.00,50.00,4.60,26.00,26.00,21.00,-1,319.00,1.10,1,0,0,0,0,12.10,1,0,1,,
154050,50,0,0,50,1,49,22228,1,1,1,2.00,0.20,4.00,2,220.00,17.22,86.63,200.50,,202.73,1.75,-1.27,50.75,-69.00,-48.00,-220.00,122.00,144.00,50.00,4.60,26.00,26.00,20.00,-1,320.00,1.10,1,0,0,0,0,9.72,1,0,1,,
155051,50,0,0,50,1,51,22228,1,1,1,2.00,0.20,4.00,2,220.00,17.35,86.63,200.84,,202.97,1.61,-1.90,48.23,-69.00,-48.00,-220.00,122.00,144.00,50.00,4.60,26.00,26.00,21.00,-1,319.00,1.00,1,0,0,0,0,187.60,1,0,1,,
156068,50,0,0,50,1,50,22228,1,1,1,2.00,0.20,4.00,2,220.00,15.32,86.63,201.37,,204.83,1.93,-1.47,24.13,-69.00,-48.00,-220.00,122.00,144.00,50.00,4.60,26.00,26.00,20.00,-1,319.00,1.00,1,0,0,0,0,11.98,1,0,1,,
157050,44,0,0,44,0,39,0,1,1,1,2.00,0.20,4.00,2,220.00,12.47,86.63,202.13,,207.69,2.56,-2.75,49.41,-69.00,-48.00,-220.00,122.00,144.00,50.00,4.60,26.00,26.00,20.00,-1,316.00,1.00,1,0,0,0,0,11.98,1,0,1,,
158055,39,0,0,39,1,39,26178,1,1,1,2.00,0.20,4.00,2,220.00,12.27,86.63,203.02,,207.46,1.10,-1.33,148.19,-69.00,-48.00,-220.00,122.00,144.00,50.00,4.60,26.00,26.00,20.00,-1,315.00,0.80,1,0,0,0,0,11.98,1,0,1,,
159050,39,0,0,39,1,39,26178,1,1,1,2.00,0.20,4.00,2,220.00,12.22,86.63,203.76,,208.04,1.49,-1.08,48.28,-69.00,-48.00,-220.00,122.00,144.00,50.00,4.70,26.00,26.00,21.00,-1,316.00,0.80,1,0,0,0,0,35.45,1,0,1,,
160050,39,0,0,39,0,32,0,1,1,1,2.00,0.20,4.00,2,220.00,9.39,91.33,204.70,,210.57,1.48,-1.57,86.06,-69.00,-48.00,-220.00,122.00,144.00,50.00,4.70,26.00,26.00,20.00,-1,314.00,0.80,1,0,0,0,0,16.61,1,0,1,,
161050,33,0,0,33,1,36,29184,1,1,1,2.00,0.20,4.00,2,220.00,10.42,96.16,205.63,,209.51,1.97,-2.14,51.38,-69.00,-48.00,-220.00,122.00,144.00,50.00,4.70,26.00,26.00,21.00,-1,314.00,0.80,1,0,0,0,0,16.61,1,0,1,,
162050,33,0,0,33,1,33,29184,1,1,1,2.00,0.20,4.00,2,220.00,8.00,105.08,206.55,,211.83,1.38,-1.06,49.11,-69.00,-48.00,-220.00,122.00,144.00,50.00,4.70,26.00,26.00,21.00,-1,314.00,0.80,1,0,0,0,0,16.61,1,0,1,,
163050,33,0,0,33,1,33,29184,1,1,1,2.00,0.20,4.00,2,220.00,8.04,113.22,207.39,,212.20,2.09,-2.41,51.41,-69.00,-48.00,-220.00,122.00,144.00,50.00,4.70,26.00,26.00,20.00,-1,315.00,0.90,1,0,0,0,0,187.48,1,0,1,,
164050,33,0,0,33,1,33,29184,1,1,1,2.00,0.20,4.00,2,220.00,7.11,120.95,208.19,,213.00,1.57,-1.34,48.85,-69.00,-48.00,-220.00,122.00,144.00,50.00,4.70,26.00,26.00,20.00,-1,314.00,0.90,1,0,0,0,0,35.45,1,0,1,,
165050,33,0,0,33,1,31,29184,1,1,1,2.00,0.20,4.00,2,220.00,5.02,126.70,209.15,,215.09,1.73,-2.05,50.70,-69.00,-48.00,-220.00,122.00,144.00,50.00,4.70,26.00,26.00,21.00,-1,313.00,0.90,1,0,0,0,0,16.61,1,0,1,,
166050,33,0,0,33,1,33,29184,1,1,1,2.00,0.20,4.00,2,220.00,5.76,132.66,210.02,,214.25,2.73,-2.15,49.42,-69.00,-48.00,-220.00,122.00,144.00,50.00,4.70,26.00,26.00,20.00,-1,312.00,1.00,1,0,0,0,0,16.61,1,0,1,,
167068,33,0,0,33,1,33,29184,1,1,1,2.00,0.20,4.00,2,220.00,5.88,138.44,210.73,,214.15,2.54,-1.98,23.99,-69.00,-48.00,-220.00,122.00,144.00,50.00,4.80,26.00,26.00,21.00,-1,311.00,1.00,1,0,0,0,0,16.61,1,0,1,,
168050,37,0,0,37,1,37,36828,1,1,1,2.00,0.20,4.00,2,220.00,4.97,144.04,211.35,,214.97,1.43,-2.05,51.37,-69.00,-48.00,-220.00,122.00,144.00,50.00,4.80,26.00,26.00,20.00,-1,312.00,1.00,1,0,0,0,0,16.61,1,0,1,,
169069,37,0,0,37,1,37,36828,1,1,1,2.00,0.20,4.00,2,220.00,3.93,148.22,212.06,,216.12,1.81,-1.64,23.56,-69.00,-48.00,-220.00,122.00,144.00,50.00,4.80,26.00,26.00,20.00,-1,311.00,1.00,1,0,0,0,0,16.61,1,0,1,,
170050,37,0,0,37,1,39,36828,1,1,1,2.00,0.20,4.00,2,220.00,5.34,153.28,212.62,,214.72,2.28,-2.39,50.75,-69.00,-48.00,-220.00,122.00,144.00,50.00,4.80,26.00,26.00,20.00,-1,311.00,1.00,1,0,0,0,0,16.61,1,0,1,,
171056,37,0,0,37,1,37,36828,1,1,1,2.00,0.20,4.00,2,220.00,3.83,157.56,213.10,,216.30,2.64,-2.44,147.84,-69.00,-48.00,-220.00,122.00,144.00,50.00,4.80,26.00,26.00,20.00,-1,309.00,1.00,1,0,0,0,0,16.61,1,0,1,,
172050,37,0,0,37,1,37,36828,1,1,1,2.00,0.20,4.00,2,220.00,3.29,160.97,213.69,,216.68,2.37,-1.92,50.74,-69.00,-48.00,-220.00,122.00,144.00,50.00,4.80,26.00,26.00,20.00,-1,308.00,1.00,1,0,0,0,0,16.61,1,0,1,,
173050,37,0,0,37,1,36,36828,1,1,1,2.00,0.20,4.00,2,220.00,2.86,163.90,214.27,,217.21,2.23,-1.76,93.08,-69.00,-48.00,-220.00,122.00,144.00,50.00,4.80,26.00,26.00,21.00,-1,308.00,1.00,1,0,0,0,0,8.35,1,0,1,,
174050,37,0,0,37,1,37,36828,1,1,1,2.00,0.20,4.00,2,220.00,1.88,166.50,214.79,,218.30,2.46,-2.31,52.05,-69.00,-48.00,-220.00,122.00,144.00,50.00,4.80,26.10,26.10,20.00,-1,307.00,1.00,1,0,0,0,0,8.35,1,0,1,,
175050,37,0,0,37,1,35,36828,1,1,1,2.00,0.20,4.00,2,220.00,1.80,168.36,215.38,,218.24,1.69,-1.85,93.08,-69.00,-48.00,-220.00,122.00,144.00,50.00,4.80,26.10,26.10,21.00,-1,306.00,0.90,1,0,0,0,0,8.35,1,0,1,,
176050,37,0,0,37,0,30,0,1,1,1,2.00,0.20,4.00,2,220.00,-0.35,168.63,216.04,,220.42,2.93,-2.85,48.34,-69.00,-48.00,-220.00,122.00,144.00,50.00,4.80,26.10,26.10,20.00,-1,305.00,0.90,1,0,0,0,0,8.35,1,0,1,,
177050,31,0,0,31,1,30,45228,1,1,1,2.00,0.20,4.00,2,220.00,-0.29,168.34,216.79,,220.32,2.69,-2.17,52.03,-69.00,-48.00,-220.00,122.00,144.00,50.00,4.80,26.10,26.10,20.00,-1,305.00,0.90,1,0,0,0,,,,0.4.0,200,-0293432,-6,-400,-00,1,14500,422620.0,-1.0001,00,0,0,8.35,1,0,1,,
178050,31,0,0,31,1,31,45228,1,1,1,2.00,0.20,4.00,2,220.00,-1.19,167.83,217.41,,221.21,1.57,-1.64,48.87,-69.00,-48.00,-220.00,122.00,144.00,50.00,4.80,26.10,26.10,21.00,-1,303.00,0.70,1,0,0,0,0,8.35,1,0,1,,
179050,26,0,0,26,1,26,47696,1,1,1,2.00,0.20,4.00,2,220.00,-1.97,165.78,218.16,,221.91,1.55,-1.62,51.40,-69.00,-48.00,-220.00,122.00,144.00,50.00,4.80,26.10,26.10,21.00,-1,303.00,0.70,1,0,0,0,0,8.35,1,0,1,,
180050,26,0,0,26,1,26,47696,1,1,1,2.00,0.20,4.00,2,220.00,-1.92,163.96,218.78,,221.87,2.88,-2.78,49.47,-69.00,-48.00,-220.00,122.00,144.00,50.00,4.80,26.10,26.10,21.00,-1,301.00,0.60,1,0,0,0,0,8.35,1,0,1,,
181050,26,0,0,26,1,26,47696,1,1,1,2.00,0.20,4.00,2,220.00,-2.25,162.10,219.28,,222.36,2.22,-2.20,51.35,-69.00,-48.00,-220.00,122.00,144.00,50.00,4.80,26.10,26.10,21.00,-1,300.00,0.60,1,0,0,0,0,8.35,1,0,1,,
182050,26,0,0,26,1,26,47696,1,1,1,2.00,0.20,4.00,2,220.00,-1.88,160.27,219.74,,221.85,1.96,-1.87,48.84,-69.00,-48.00,-220.00,122.00,144.00,50.00,4.80,26.10,26.10,21.00,-1,301.00,0.60,1,0,0,0,0,8.35,1,0,1,,
183050,26,0,0,26,1,25,47696,1,1,1,2.00,0.20,4.00,2,220.00,-2.70,157.59,220.19,,222.68,2.03,-2.19,51.33,-69.00,-48.00,-220.00,122.00,144.00,50.00,4.80,26.10,26.10,20.00,-1,300.00,1.40,1,0,0,0,1,8.35,1,0,1,,
184050,26,0,0,26,1,26,47696,1,1,1,2.00,0.20,4.00,2,220.00,-3.42,154.23,220.71,,223.39,2.91,-2.55,50.70,-69.00,-48.00,-220.00,122.00,144.00,50.00,4.80,26.10,26.10,20.00,-1,299.00,1.40,1,0,0,0,1,8.35,1,0,1,,
185050,26,0,0,26,1,22,47696,1,1,1,2.00,0.20,4.00,2,220.00,-3.49,150.91,221.18,,223.31,2.24,-1.72,48.83,-69.00,-48.00,-220.00,122.00,144.00,50.00,4.80,26.10,26.10,20.00,-1,300.00,1.40,1,0,0,0,1,8.35,1,0,1,,
186068,26,0,0,26,1,26,47696,1,1,1,2.00,0.20,4.00,2,220.00,-3.23,148.06,221.49,,223.09,2.33,-2.35,24.00,-69.00,-48.00,-220.00,122.00,144.00,50.00,4.80,26.10,26.10,20.00,-1,300.00,1.40,1,0,0,0,0,22.83,1,0,1,,
187051,26,0,0,26,1,23,47696,1,1,1,2.00,0.20,4.00,2,220.00,-2.28,145.75,221.66,,222.33,2.66,-2.17,48.23,-69.00,-48.00,-220.00,122.00,144.00,50.00,4.70,26.10,26.10,21.00,-1,301.00,1.40,1,0,0,0,0,9.05,1,0,1,,
188068,26,0,0,26,1,26,47696,1,1,1,2.00,0.20,4.00,2,220.00,-2.12,143.89,221.70,,222.12,2.78,-2.48,24.28,-69.00,-48.00,-220.00,122.00,144.00,50.00,4.70,26.10,26.10,21.00,-1,302.00,1.40,1,0,0,0,0,9.05,1,0,1,,
189050,26,0,0,26,1,26,47696,1,1,1,2.00,0.20,4.00,2,220.00,-2.62,141.70,221.78,,222.68,2.45,-1.89,48.82,-69.00,-48.00,-220.00,122.00,144.00,50.00,4.70,26.10,26.10,21.00,-1,304.00,1.40,1,0,0,0,0,9.05,1,0,1,,
190055,22,0,0,22,1,22,58728,1,1,1,2.00,0.20,4.00,2,220.00,-3.56,138.34,222.01,,223.34,2.96,-2.13,146.97,-69.00,-48.00,-220.00,122.00,144.00,50.00,4.70,26.10,26.10,21.00,-1,305.00,1.40,1,0,0,0,0,9.05,1,0,1,,
191050,22,0,0,22,1,20,58728,1,1,1,2.00,0.20,4.00,2,220.00,-3.04,135.10,222.19,,223.12,3.20,-3.22,49.54,-69.00,-48.00,-220.00,122.00,144.00,50.00,4.60,26.10,26.10,21.00,-1,305.00,1.40,1,0,0,0,0,9.05,1,0,1,,
192050,22,0,0,22,1,22,58728,1,1,1,2.00,0.20,4.00,2,220.00,-3.83,131.60,222.41,,223.81,2.56,-2.27,88.56,-69.00,-48.00,-220.00,122.00,144.00,50.00,4.60,26.10,26.10,21.00,-1,307.00,1.20,1,0,0,0,0,9.05,1,0,1,,
193050,18,0,0,18,1,18,61678,1,1,1,2.00,0.20,4.00,2,220.00,-4.73,127.15,222.72,,224.74,2.86,-1.94,51.38,-69.00,-48.00,-220.00,122.00,144.00,50.00,4.60,26.10,26.10,21.00,-1,308.00,1.20,1,0,0,0,0,9.05,1,0,1,,
194050,18,0,0,18,1,18,61678,1,1,1,2.00,0.20,4.00,2,220.00,-4.37,122.65,223.04,,224.24,3.03,-3.25,97.69,-69.00,-48.00,-220.00,122.00,144.00,50.00,4.60,26.10,26.10,20.00,-1,307.00,1.20,1,0,0,0,0,9.05,1,0,1,,
195050,18,0,0,18,1,18,61678,1,1,1,2.00,0.20,4.00,2,220.00,-2.34,119.58,223.08,,222.44,3.20,-2.24,51.43,-69.00,-48.00,-220.00,122.00,144.00,50.00,4.60,26.10,26.10,20.00,-1,308.00,1.10,1,0,0,0,0,9.05,1,0,1,,
196050,-2,0,0,-2,0,-22,0,1,1,1,2.00,0.20,4.00,2,200.00,-23.47,119.58,223.12,,223.27,2.75,-2.81,49.09,-69.00,-48.00,-220.00,122.00,144.00,50.00,4.50,26.10,26.10,20.00,-1,307.00,1.10,1,0,0,0,0,9.05,1,0,1,,
197050,-21,0,0,-21,1,-19,65478,1,1,1,2.00,0.20,4.00,2,200.00,-21.64,119.58,223.04,,221.49,2.95,-2.20,51.39,-69.00,-48.00,-220.00,122.00,144.00,50.00,4.50,26.10,26.10,21.00,-1,307.00,1.10,1,0,0,0,0,9.05,1,0,1,,
198050,-21,0,0,-21,1,-21,65478,1,1,1,2.00,0.20,4.00,2,200.00,-22.09,119.58,222.82,,221.90,2.41,-3.07,48.25,-69.00,-48.00,-220.00,122.00,144.00,50.00,4.40,26.10,26.10,21.00,-1,304.00,1.00,1,0,0,0,0,80.62,1,0,1,,
199050,-21,0,0,-21,1,-17,65478,1,1,1,2.00,0.20,4.00,2,200.00,-20.95,119.58,222.64,,220.71,2.19,-1.09,51.33,-69.00,-48.00,-220.00,122.00,144.00,50.00,4.40,26.10,26.10,21.00,-1,306.00,1.00,1,0,0,0,0,16.61,1,0,1,,
200050,-21,0,0,-21,1,-17,65478,1,1,1,2.00,0.20,4.00,2,200.00,-20.86,119.58,222.32,,220.94,3.14,-3.15,51.42,-69.00,-48.00,-220.00,122.00,144.00,50.00,4.30,26.10,26.10,21.00,-1,304.00,1.00,1,0,0,0,0,16.61,1,0,1,,
201050,-17,0,0,-17,1,-17,4142,1,1,1,2.00,0.20,4.00,2,200.00,-20.80,119.58,222.02,,220.89,3.24,-2.53,48.36,-69.00,-48.00,-220.00,122.00,144.00,50.00,4.30,26.10,26.10,20.00,-1,305.00,0.80,1,0,0,0,0,16.61,1,0,1,,
202050,-16,0,0,-16,1,-16,4142,1,1,1,2.00,0.20,4.00,2,200.00,-19.45,119.58,221.66,,219.38,1.78,-1.69,50.74,-69.00,-48.00,-220.00,122.00,144.00,50.00,4.30,26.10,26.10,21.00,-1,305.00,0.80,1,0,0,0,0,16.61,1,0,1,,
203051,-16,0,0,-16,2,-7,0,1,1,1,2.00,0.20,4.00,2,200.00,-16.83,119.58,221.13,,216.57,1.75,-1.22,48.25,-69.00,-48.00,-220.00,122.00,144.00,50.00,4.30,26.10,26.10,21.00,-1,306.00,0.80,1,0,0,0,0,16.61,1,0,1,,
204050,-8,0,0,-8,1,-10,6842,1,1,1,2.00,0.20,4.00,2,200.00,-18.29,119.58,220.52,,218.33,3.20,-3.40,50.86,-69.00,-48.00,-220.00,122.00,144.00,50.00,4.30,26.10,26.10,21.00,-1,305.00,0.80,1,0,0,0,0,16.61,1,0,1,,
205050,-8,0,0,-8,1,-7,6842,1,1,1,2.00,0.20,4.00,2,200.00,-16.56,119.58,219.99,,216.41,2.74,-1.80,48.78,-69.00,-48.00,-220.00,122.00,144.00,50.00,4.30,26.10,26.10,20.00,-1,256.00,0.80,1,0,0,0,0,16.61,1,0,1,,
206050,-4,0,0,-4,1,-4,9147,1,1,1,2.00,0.20,4.00,2,200.00,-15.51,119.58,219.20,,215.38,1.73,-1.79,50.71,-69.00,-48.00,-220.00,122.00,144.00,50.00,4.20,26.10,26.10,21.00,-1,309.00,0.80,1,0,0,0,0,16.61,1,0,1,,
207069,-4,0,0,-4,1,-4,9147,1,1,1,2.00,0.20,4.00,2,200.00,-15.39,119.58,218.54,,215.55,3.80,-2.67,23.58,-69.00,-48.00,-220.00,122.00,144.00,50.00,4.20,26.10,26.10,21.00,-1,309.00,0.80,1,0,0,0,0,33.19,1,0,1,,
208050,-4,0,0,-4,1,-4,9147,1,1,1,2.00,0.20,4.00,2,200.00,-15.08,119.58,217.98,,215.36,2.84,-2.71,48.26,-69.00,-48.00,-220.00,122.00,144.00,50.00,4.20,26.10,26.10,21.00,-1,307.00,0.80,1,0,0,0,0,7.59,1,0,1,,
209069,-4,0,0,-4,1,-4,9147,1,1,1,2.00,0.20,4.00,2,200.00,-15.03,119.58,217.52,,214.99,2.85,-2.30,24.14,-69.00,-48.00,-220.00,122.00,144.00,50.00,4.10,26.10,26.10,20.00,-1,308.00,0.80,1,0,0,0,0,7.59,1,0,1,,
210050,-4,0,0,-4,1,-4,9147,1,1,1,2.00,0.20,4.00,2,200.00,-14.54,119.58,217.08,,214.50,2.55,-1.86,48.82,-69.00,-48.00,-220.00,122.00,144.00,50.00,4.10,26.10,26.10,21.00,-1,308.00,0.90,1,0,0,0,0,7.59,1,0,1,,
211055,-4,0,0,-4,1,-4,9147,1,1,1,2.00,0.20,4.00,2,200.00,-13.37,119.58,216.43,,213.37,2.85,-2.58,146.97,-69.00,-48.00,-220.00,122.00,144.00,50.00,4.10,26.10,26.10,20.00,-1,307.00,0.90,1,0,0,0,0,7.59,1,0,1,,
212050,-4,0,0,-4,1,0,9147,1,1,1,2.00,0.20,4.00,2,200.00,-12.44,119.58,215.82,,212.35,2.29,-2.11,48.84,-69.00,-48.00,-220.00,122.00,144.00,50.00,4.10,26.10,26.10,20.00,-1,306.00,0.90,1,0,0,0,0,7.59,1,0,1,,
213050,1,0,0,1,1,1,16242,1,1,1,2.00,0.20,4.00,2,200.00,-12.19,119.58,215.14,,211.78,2.95,-1.97,22.91,-69.00,-48.00,-220.00,122.00,144.00,50.00,4.10,26.10,26.10,20.00,-1,307.00,0.90,1,0,0,0,0,7.59,1,0,1,,
214050,1,0,0,1,1,1,16242,1,1,1,2.00,0.20,4.00,2,200.00,-11.66,119.58,214.50,,211.94,2.45,-2.68,48.82,-69.00,-48.00,-220.00,122.00,144.00,50.00,4.10,26.10,26.10,21.00,-1,307.00,0.90,1,0,0,0,0,2.0,-21,214882,-,-400,-00,12,14,5000,426.26.21.,-.00,.91,00,0,0,7.59,1,0,1,,
215050,1,0,0,1,1,1,16242,1,1,1,2.00,0.20,4.00,2,200.00,-12.90,119.58,214.09,,212.98,2.44,-2.53,95.42,-69.00,-48.00,-220.00,122.00,144.00,50.00,4.00,26.10,26.10,20.00,-1,309.00,0.90,1,0,0,0,0,7.59,1,0,1,,
216050,1,0,0,1,1,1,16242,1,1,1,2.00,0.20,4.00,2,200.00,-11.23,108.02,213.79,,211.18,3.27,-2.67,51.47,-69.00,-48.00,-220.00,122.00,144.00,50.00,4.00,26.10,26.10,21.00,-1,308.00,0.90,1,0,0,0,0,7.59,1,0,1,,
217050,1,0,0,1,1,1,16242,1,1,1,2.00,0.20,3.00,2,200.00,-9.73,97.97,213.18,,209.81,2.88,-3.14,48.83,-69.00,-48.00,-220.00,122.00,144.00,50.00,4.00,26.10,26.10,20.00,-1,310.00,0.90,1,0,0,0,0,7.59,1,0,1,,
218050,1,0,0,1,1,0,16242,1,1,1,2.00,0.20,3.00,2,200.00,-9.40,87.93,212.71,,209.13,2.13,-1.21,50.74,-69.00,-48.00,-220.00,122.00,144.00,50.00,4.00,26.10,26.10,20.00,-1,311.00,1.00,1,0,0,0,0,7.59,1,0,1,,
219051,1,0,0,1,1,1,16242,1,1,1,2.00,0.20,3.00,2,200.00,-9.24,79.44,212.04,,209.41,3.19,-2.87,48.82,-69.00,-48.00,-220.00,122.00,144.00,50.00,4.00,26.10,26.10,20.00,-1,310.00,1.00,1,0,0,0,1,7.59,1,0,1,,
220050,-4,0,0,-4,1,-7,23142,1,1,1,2.00,0.20,3.00,2,200.00,-11.31,68.53,211.77,,211.42,3.00,-2.85,51.38,-69.00,-48.00,-220.00,122.00,144.00,50.00,4.00,26.10,26.10,21.00,-1,310.00,1.00,1,0,0,0,1,7.59,1,0,1,,
221050,-4,0,0,-4,1,-4,23142,1,1,1,2.00,0.20,3.00,2,200.00,-9.08,58.30,211.63,,208.95,2.57,-1.51,48.83,-69.00,-48.00,-220.00,122.00,144.00,50.00,4.00,26.10,26.10,21.00,-1,311.00,1.10,1,0,0,0,1,7.59,1,0,1,,
222068,-4,0,0,-4,1,-4,23142,1,1,1,2.00,0.20,3.00,2,200.00,-7.98,49.73,211.09,,208.08,3.30,-2.89,24.15,-69.00,-48.00,-220.00,122.00,144.00,50.00,3.90,26.10,26.10,21.00,-1,311.00,1.10,1,0,0,0,1,7.59,1,0,1,,
223050,-4,0,0,-4,1,-4,23142,1,1,1,2.00,0.20,3.00,2,200.00,-8.45,41.58,210.58,,208.95,2.86,-2.88,49.48,-69.00,-48.00,-220.00,122.00,144.00,50.00,3.90,26.10,26.10,20.00,-1,312.00,1.10,1,0,0,0,1,7.59,1,0,1,,
224056,-4,0,0,-4,0,-9,0,1,1,1,2.00,0.20,3.00,2,200.00,-8.70,32.91,210.27,,208.41,2.58,-1.59,145.35,-69.00,-48.00,-220.00,122.00,144.00,50.00,3.90,26.10,26.10,21.00,-1,311.00,1.20,1,0,0,0,1,7.59,1,0,1,,
225050,-8,0,0,-8,1,-7,27742,1,1,1,2.00,0.20,3.00,2,200.00,-7.02,25.66,209.78,,207.11,3.16,-3.67,52.09,-69.00,-48.00,-220.00,122.00,144.00,50.00,3.90,26.10,26.10,21.00,-1,312.00,1.20,1,0,0,0,1,7.59,1,0,1,,
226050,-12,0,0,-12,1,-12,29142,1,1,1,2.00,0.20,3.00,2,200.00,-7.77,16.81,209.57,,207.76,2.47,-1.41,93.01,-69.00,-48.00,-220.00,122.00,144.00,50.00,3.90,26.10,26.10,20.00,-1,313.00,1.20,1,0,0,0,1,7.59,1,0,1,,
227050,-12,0,0,-12,1,-12,29142,1,1,1,2.00,0.20,3.00,2,200.00,-6.14,10.90,209.05,,206.24,2.42,-2.32,51.35,-69.00,-48.00,-220.00,122.00,144.00,50.00,3.90,26.10,26.10,21.00,-1,315.00,1.20,1,0,0,0,1,7.59,1,0,1,,
228050,-12,0,0,-12,1,-12,29142,1,1,1,2.00,0.20,3.00,2,200.00,-6.53,4.88,208.51,,206.52,2.44,-2.61,48.93,-69.00,-48.00,-220.00,122.00,144.00,50.00,3.90,26.10,26.10,20.00,-1,314.00,1.20,1,0,0,0,1,7.59,1,0,1,,
229050,-12,0,0,-12,1,-11,29142,1,1,1,2.00,0.20,3.00,2,200.00,-5.97,-1.44,208.16,,206.03,2.65,-2.15,51.06,-69.00,-48.00,-220.00,122.00,144.00,50.00,3.90,26.10,26.10,21.00,-1,315.00,1.20,1,0,0,0,1,7.59,1,0,1,,
230050,-12,0,0,-12,1,-9,29142,1,1,1,2.00,0.20,3.00,2,200.00,-4.56,-6.55,207.68,,204.63,2.97,-2.49,49.22,-69.00,-48.00,-220.00,122.00,144.00,50.00,3.90,26.10,26.10,21.00,-1,315.00,1.30,1,0,0,0,1,7.59,1,0,1,,
231050,-12,0,0,-12,1,-13,29142,1,1,1,2.00,0.20,3.00,2,200.00,-5.99,-11.90,207.26,,205.89,2.38,-1.90,50.70,-69.00,-48.00,-220.00,122.00,144.00,50.00,3.90,26.10,26.10,20.00,-1,314.00,1.30,1,0,0,0,0,9.24,1,0,1,,
232050,-12,0,0,-12,1,-12,29142,1,1,1,2.00,0.20,3.00,2,200.00,-4.86,-16.95,206.91,,204.88,2.47,-2.07,50.38,-69.00,-48.00,-220.00,122.00,144.00,50.00,3.90,26.10,26.10,21.00,-1,315.00,1.30,1,0,0,0,0,9.24,1,0,1,,
233050,-12,0,0,-12,1,-12,29142,1,1,1,2.00,0.20,3.00,2,200.00,-2.86,-20.28,206.42,,202.58,2.37,-1.65,48.25,-69.00,-48.00,-220.00,122.00,144.00,50.00,3.90,26.10,26.10,21.00,-1,314.00,1.30,1,0,0,0,0,9.24,1,0,1,,
234050,-12,0,0,-12,2,-4,0,1,1,1,2.00,0.20,3.00,2,200.00,-1.11,-22.25,205.71,,200.95,2.11,-1.75,52.05,-69.00,-48.00,-220.00,122.00,144.00,50.00,3.90,26.10,26.10,21.00,-1,315.00,1.30,1,0,0,0,0,8.35,1,0,1,,
235051,-5,0,0,-5,1,-7,37792,1,1,1,2.00,0.20,3.00,2,200.00,-2.11,-24.45,205.02,,202.18,2.17,-1.94,49.45,-69.00,-48.00,-220.00,122.00,144.00,50.00,3.90,26.10,26.10,20.00,-1,317.00,1.30,1,0,0,0,0,8.35,1,0,1,,
236050,-5,0,0,-5,1,-5,37792,1,1,1,2.00,0.20,3.00,2,200.00,-2.63,-26.77,204.58,,202.79,2.10,-2.31,51.40,-69.00,-48.00,-220.00,122.00,144.00,50.00,3.80,26.10,26.10,21.00,-1,316.00,1.40,1,0,0,0,0,8.35,1,0,1,,
237069,-10,0,0,-10,1,-10,40142,1,1,1,2.00,0.20,3.00,2,200.00,-1.85,-29.21,204.26,,201.76,2.08,-2.06,23.50,-69.00,-48.00,-220.00,122.00,144.00,50.00,3.80,26.10,26.10,20.00,-1,316.00,1.40,1,0,0,0,0,8.35,1,0,1,,
238050,-10,0,0,-10,1,-10,40142,1,1,1,2.00,0.20,3.00,2,200.00,-0.88,-30.31,203.74,,201.12,2.33,-2.43,51.06,-69.00,-48.00,-220.00,122.00,144.00,50.00,3.80,26.10,26.10,21.00,-1,318.00,1.40,1,0,0,0,0,8.35,1,0,1,,
239055,-10,0,0,-10,1,-10,40142,1,1,1,2.00,0.20,3.00,2,200.00,-0.60,-31.47,203.34,,200.43,1.20,-1.25,145.69,-69.00,-48.00,-220.00,122.00,144.00,50.00,3.80,26.10,26.10,21.00,-1,318.00,1.40,1,0,0,0,0,8.35,1,0,1,,
240050,-2,0,0,-2,0,-7,0,1,1,1,2.00,0.20,3.00,2,200.00,-1.38,-31.64,202.76,,201.70,2.48,-1.92,48.81,-69.00,-48.00,-220.00,122.00,144.00,50.00,3.80,26.10,26.10,21.00,-1,319.00,1.40,1,0,0,0,0,8.35,1,0,1,,
241050,-6,0,0,-6,1,-6,43642,1,1,1,2.00,0.20,3.00,2,200.00,0.74,-31.64,202.34,,199.33,1.93,-2.00,97.13,-69.00,-48.00,-220.00,122.00,144.00,50.00,3.80,26.10,26.10,20.00,-1,318.00,1.40,1,0,0,0,0,8.35,1,0,1,,
242050,-6,0,0,-6,2,0,0,1,1,1,2.00,0.20,3.00,2,200.00,2.13,-30.28,201.75,,197.80,2.28,-2.22,48.25,-69.00,-48.00,-220.00,122.00,144.00,50.00,3.80,26.10,26.10,21.00,-1,319.00,0.60,1,0,0,0,0,6.83,1,0,1,,
243050,-1,0,0,-1,1,-1,45747,1,1,1,2.00,0.20,3.00,2,200.00,1.91,-28.30,201.13,,198.04,0.62,-0.78,51.55,-69.00,-48.00,-220.00,122.00,144.00,50.00,3.90,26.10,26.10,21.00,-1,321.00,0.60,1,0,0,0,0,6.83,1,0,1,,
244050,-1,0,0,-1,1,-1,45747,1,1,1,2.00,0.20,3.00,2,200.00,1.45,-26.74,200.66,,198.42,1.97,-2.07,49.41,-69.00,-48.00,-220.00,122.00,144.00,50.00,3.90,26.10,26.10,21.00,-1,321.00,0.60,1,0,0,0,0,6.83,1,0,1,,
245050,-1,0,0,-1,1,-1,45747,1,1,1,2.00,0.20,3.00,2,200.00,1.66,-25.15,200.29,,198.12,2.00,-1.43,51.40,-69.00,-48.00,-220.00,122.00,144.00,50.00,3.90,26.10,26.10,20.00,-1,319.00,0.60,1,0,0,0,0,6.83,1,0,1,,
246050,-1,0,0,-1,1,-1,45747,1,1,1,2.00,0.20,3.00,2,200.00,3.00,-22.52,199.82,,197.06,1.88,-1.93,48.81,-69.00,-48.00,-220.00,122.00,144.00,50.00,3.90,26.10,26.10,20.00,-1,320.00,0.60,1,0,0,0,0,6.83,1,0,1,,
247050,-1,0,0,-1,1,-1,45747,1,1,1,2.00,0.20,3.00,2,200.00,2.14,-20.12,199.44,,197.54,1.26,-0.78,50.30,-69.00,-48.00,-220.00,122.00,144.00,50.00,3.90,26.10,26.10,21.00,-1,321.00,0.70,1,0,0,0,0,6.83,1,0,1,,
248069,-1,0,0,-1,1,-1,45747,1,1,1,2.00,0.20,3.00,2,200.00,3.30,-17.66,199.16,,196.41,1.42,-1.07,24.00,-69.00,-48.00,-220.00,122.00,144.00,50.00,3.90,26.10,26.10,20.00,-1,321.00,0.70,1,0,0,0,0,6.83,1,0,1,,
249050,-1,0,0,-1,1,-1,45747,1,1,1,2.00,0.20,3.00,2,200.00,1.92,-15.07,198.81,,197.96,1.85,-1.15,48.81,-69.00,-48.00,-220.00,122.00,144.00,50.00,3.90,26.10,26.10,20.00,-1,322.00,0.70,1,0,0,0,0,6.83,1,0,1,,
250056,-1,0,0,-1,1,-1,45747,1,1,1,2.00,0.20,3.00,2,200.00,1.08,-13.43,198.63,,198.93,2.42,-2.71,145.86,-69.00,-48.00,-220.00,122.00,144.00,50.00,4.00,26.10,26.10,21.00,-1,321.00,0.70,1,0,0,0,0,6.83,1,0,1,,
251051,-1,0,0,-1,1,2,45747,1,1,1,2.00,0.20,3.00,2,200.00,2.86,-11.12,198.58,,196.71,0.95,-0.48,49.47,-69.00,-48.00,-220.00,122.00,144.00,50.00,4.00,26.10,26.10,21.00,-1,322.00,0.70,1,0,0,0,0,6.83,1,0,1,,
252055,-1,0,0,-1,2,4,0,1,1,1,2.00,0.20,3.00,2,200.00,3.47,-7.81,198.27,,196.92,1.53,-1.46,146.97,-69.00,-48.00,-220.00,122.00,144.00,50.00,4.00,26.10,26.10,21.00,-1,322.00,0.70,1,0,0,0,1,6.83,1,0,1,,
253050,3,0,0,3,1,3,55692,1,1,1,2.00,0.20,3.00,2,200.00,3.14,-5.23,198.13,,196.79,2.00,-1.60,48.33,-69.00,-48.00,-220.00,122.00,144.00,50.00,4.00,26.10,26.10,21.00,-1,320.00,0.80,1,0,0,0,1,6.83,1,0,1,,
254050,3,0,0,3,1,3,55692,1,1,1,2.00,0.20,3.00,2,200.00,2.91,-1.49,197.85,,197.02,1.80,-1.71,94.55,-69.00,-48.00,-220.00,122.00,144.00,50.00,4.00,26.10,26.10,20.00,-1,321.00,0.80,1,0,0,0,1,6.83,1,0,1,,
255050,3,0,0,3,1,3,55692,1,1,1,2.00,0.20,3.00,2,200.00,2.76,1.31,197.72,,197.11,1.50,-1.21,48.83,-69.00,-48.00,-220.00,122.00,144.00,50.00,4.00,26.10,26.10,20.00,-1,321.00,0.80,1,0,0,0,1,6.83,1,0,1,,
256050,9,0,0,9,1,9,59342,1,1,1,2.00,0.20,3.00,2,200.00,4.50,6.13,197.37,,195.61,1.05,-1.50,48.57,-69.00,-48.00,-220.00,122.00,144.00,50.00,4.00,26.10,26.10,20.00,-1,322.00,0.90,1,0,0,0,1,6.83,1,0,1,,
257050,9,0,0,9,1,9,59342,1,1,1,2.00,0.20,3.00,2,200.00,4.27,10.60,197.03,,196.07,1.58,-2.04,51.42,-69.00,-48.00,-220.00,122.00,144.00,50.00,4.00,26.10,26.10,20.00,-1,321.00,0.90,1,0,0,0,1,6.83,1,0,1,,
258050,9,0,0,9,1,9,59342,1,1,1,2.00,0.20,3.00,2,200.00,3.97,14.08,196.96,,195.83,0.81,-0.97,49.44,-69.00,-48.00,-220.00,122.00,144.00,50.00,4.00,26.10,26.10,20.00,-1,322.00,0.90,1,0,0,0,1,6.83,1,0,1,,
259050,9,0,0,9,1,9,59342,1,1,1,2.00,0.20,3.00,2,200.00,5.51,18.96,196.73,,194.07,0.59,-0.48,50.36,-69.00,-48.00,-220.00,122.00,144.00,50.00,4.00,26.10,26.10,21.00,-1,320.00,0.90,1,0,0,0,1,6.83,1,0,1,,
260050,9,0,0,9,2,17,0,1,1,1,2.00,0.20,3.00,2,200.00,6.70,24.68,196.34,,193.89,1.73,-2.07,48.83,-69.00,-48.00,-220.00,122.00,144.00,50.00,4.10,26.10,26.10,21.00,-1,321.00,0.90,1,0,0,0,1,6.83,1,0,1,,
261069,17,0,0,17,1,17,63842,1,1,1,2.00,0.20,3.00,2,200.00,5.08,29.82,196.04,,194.72,1.54,-1.87,24.06,-69.00,-48.00,-220.00,122.00,144.00,50.00,4.10,26.10,26.10,20.00,-1,321.00,0.90,1,0,0,0,1,6.83,1,0,1,,
262050,17,0,0,17,1,-155,63842,1,1,1,2.00,0.20,3.00,2,110.00,-84.88,32.46,195.81,,194.97,0.97,-1.39,48.83,-69.00,-48.00,-220.00,122.00,144.00,50.00,4.10,2.10,26.10,21.00,-1,322.00,1.00,1,0,0,0,1,6.83,1,0,1,,
263056,-22,0,0,-22,0,-162,0,1,1,1,2.00,0.20,3.00,2,110.00,-85.12,32.46,195.59,,194.95,1.63,-1.31,145.43,-69.00,-48.00,-220.00,122.00,144.00,50.00,4.20,2.10,26.10,20.00,-1,323.00,1.00,1,0,0,0,1,6.83,1,0,1,,
264050,-65,0,0,-65,0,-159,0,1,1,1,2.00,0.20,3.00,2,110.00,-83.06,32.46,195.29,,193.14,2.19,-2.46,52.04,-69.00,-48.00,-220.00,122.00,144.00,50.00,4.20,2.10,26.10,21.00,-1,323.00,1.00,1,0,0,0,1,6.83,1,0,1,,
265050,-103,0,0,-103,0,-155,0,1,1,1,2.00,0.20,3.00,2,110.00,-81.52,32.46,194.83,,191.44,1.46,-1.50,97.66,-69.00,-48.00,-220.00,122.00,144.00,50.00,4.20,2.10,26.10,20.00,-1,322.00,1.00,1,0,0,0,1,6.83,1,0,1,,
266050,-142,0,0,-142,0,-150,0,1,1,1,2.00,0.20,3.00,2,110.00,-79.41,32.46,194.13,,189.42,1.85,-2.34,51.39,-69.00,-48.00,-220.00,122.00,144.00,50.00,4.20,2.10,26.10,20.00,-1,325.00,1.00,1,0,0,0,1,6.83,1,0,1,,
267051,-144,0,0,-144,2,-136,0,1,1,1,2.00,0.20,3.00,2,110.00,-75.07,32.46,192.85,,185.36,1.56,-2.00,48.77,-69.00,-48.00,-220.00,122.00,144.00,50.00,4.30,2.10,26.10,20.00,-1,326.00,1.00,1,0,0,0,0,6.83,1,0,1,,
268050,-136,0,0,-136,2,-123,0,1,1,1,2.00,0.20,3.00,2,110.00,-69.40,32.46,191.38,,178.44,1.61,-0.45,51.43,-69.00,-48.00,-220.00,122.00,144.00,50.00,4.30,2.10,26.10,20.00,-1,328.00,1.10,1,0,0,0,0,6.83,1,0,1,,
269050,-116,0,0,-116,1,-116,6856,1,1,1,2.00,0.20,3.00,2,110.00,-68.13,32.46,189.20,,177.58,1.72,-1.22,48.25,-69.00,-48.00,-220.00,122.00,144.00,50.00,4.30,2.10,26.10,20.00,-1,330.00,1.10,1,0,0,0,0,16.64,1,0,1,,
270050,-105,0,0,-105,2,-83,0,1,1,1,2.00,0.20,3.00,2,110.00,-58.55,32.46,186.47,,168.07,1.43,-0.60,52.05,-69.00,-48.00,-220.00,122.00,144.00,50.00,4.30,2.10,26.10,20.00,-1,332.00,1.30,1,0,0,0,0,16.64,1,0,1,,
271050,-70,0,0,-70,2,-64,0,1,1,1,2.00,0.20,3.00,2,110.00,-54.45,32.46,182.91,,163.66,1.46,-0.78,49.43,-69.00,-48.00,-220.00,122.00,144.00,50.00,4.20,2.10,26.10,21.00,-1,335.00,1.30,1,0,0,0,0,6.83,1,0,1,,
272070,-64,0,0,-64,1,-64,9106,1,1,1,2.00,0.20,3.00,2,110.00,-51.94,32.46,179.51,,161.63,3.22,-1.71,23.37,-69.00,-48.00,-220.00,122.00,144.00,50.00,4.20,2.10,26.10,21.00,-1,336.00,1.30,1,0,0,0,0,6.83,1,0,1,,
273050,-58,0,0,-58,0,-67,0,1,1,1,2.00,0.20,3.00,2,110.00,-51.31,32.46,176.23,,161.33,2.17,-1.95,51.39,-69.00,-48.00,-220.00,122.00,144.00,50.00,4.00,2.10,26.10,21.00,-1,339.00,1.40,1,0,0,0,0,14.36,1,0,1,,
274050,-62,0,0,-62,1,-62,11606,1,1,1,2.00,0.20,3.00,2,110.00,-47.89,32.46,173.24,,157.57,3.09,-2.51,24.16,-69.00,-48.00,-220.00,122.00,144.00,50.00,4.00,2.10,26.10,21.00,-1,341.00,1.40,1,0,0,0,0,14.36,1,0,1,,
275050,-54,0,0,-54,2,-41,0,1,1,1,2.00,0.20,3.00,2,110.00,-41.85,32.46,169.97,,152.33,2.70,-2.69,51.42,-69.00,-48.00,-220.00,122.00,144.00,50.00,3.90,2.10,26.10,21.00,-1,342.00,1.40,1,0,0,0,0,14.36,1,0,1,,
276050,-41,0,0,-41,1,-41,13456,1,1,1,2.00,0.20,3.00,2,110.00,-40.55,32.46,166.62,,150.44,2.37,-2.73,103.22,-69.00,-48.00,-220.00,122.00,144.00,50.00,3.90,2.10,26.10,20.00,-1,344.00,1.40,1,0,0,0,0,7.80,1,0,1,,
277050,-28,0,0,-28,1,-28,14906,1,1,1,2.00,0.20,3.00,2,110.00,-37.55,32.46,163.25,,147.91,3.48,-2.62,51.40,-69.00,-48.00,-220.00,122.00,144.00,50.00,3.80,2.10,26.10,20.00,-1,346.00,1.40,1,0,0,0,0,7.80,1,0,1,,
278050,-39,0,0,-39,0,-21,0,1,1,1,2.00,0.20,3.00,2,110.00,-32.80,32.46,160.07,,143.22,2.71,-4.16,49.11,-69.00,-48.00,-220.00,122.00,144.00,50.00,3.70,2.10,26.10,20.00,-1,345.00,1.40,1,0,0,0,0,7.80,1,0,1,,
279050,-40,0,0,-40,1,-40,15940,1,1,1,2.00,0.20,3.00,2,110.00,-35.15,32.46,157.47,,145.62,2.87,-2.72,51.16,-69.00,-48.00,-220.00,122.00,144.00,50.00,3.70,2.10,26.10,20.00,-1,348.00,1.30,1,0,0,0,0,8.32,1,0,1,,
280050,-40,0,0,-40,1,-40,15940,1,1,1,2.00,0.20,3.00,2,110.00,-32.74,32.46,155.00,,143.11,3.70,-3.69,51.30,-69.00,-48.00,-220.00,122.00,144.00,50.00,3.50,2.10,26.10,21.00,-1,350.00,1.30,1,0,0,0,0,15.24,1,0,1,,
281050,-46,0,0,-46,1,-43,18756,1,1,1,2.00,0.20,3.00,2,110.00,-30.86,32.46,152.99,,140.14,4.16,-2.53,48.79,-69.00,-48.00,-220.00,122.00,144.00,50.00,3.50,2.10,26.10,20.00,-1,350.00,1.30,1,0,0,0,0,15.24,1,0,1,,
282050,-29,0,0,-29,2,-19,0,1,1,1,2.00,0.20,3.00,2,110.00,-24.51,20.38,150.15,,135.07,2.67,-3.64,51.41,-69.00,-48.00,-220.00,122.00,144.00,50.00,3.40,2.10,26.10,20.00,-1,354.00,1.20,1,0,0,0,0,15.91,1,0,1,,
283051,-31,0,0,-31,0,-45,0,1,1,1,2.00,0.20,3.00,2,110.00,-28.46,-7.26,147.88,,138.74,4.47,-3.20,49.48,-69.00,-48.00,-220.00,122.00,144.00,50.00,3.40,2.10,26.10,20.00,-1,353.00,1.20,1,0,0,0,0,10.61,1,0,1,,
284050,-43,0,0,-43,2,-32,0,1,1,1,2.00,0.20,3.00,2,110.00,-23.07,-30.58,145.51,,132.62,4.09,-3.24,52.07,-69.00,-48.00,-220.00,122.00,144.00,50.00,3.20,2.10,26.10,20.00,-1,354.00,1.20,1,0,0,0,0,10.61,1,0,1,,
285070,-41,0,0,-41,0,-57,0,1,1,1,2.00,0.20,3.00,2,110.00,-27.22,-56.58,143.61,,136.24,4.08,-1.41,23.51,-69.00,-48.00,-220.00,122.00,144.00,50.00,3.20,2.10,26.10,20.00,-1,357.00,1.10,1,0,0,0,0,10.61,1,0,1,,
286050,-53,0,0,-53,2,-47,0,1,1,1,2.00,0.20,3.00,2,110.00,-20.96,-78.43,141.88,,130.17,5.26,-3.51,50.76,-69.00,-48.00,-220.00,122.00,144.00,50.00,3.10,2.10,26.10,20.00,-1,356.00,1.10,1,0,0,0,0,6.83,1,0,1,,
287055,-33,0,0,-33,0,-33,24911,1,1,1,2.00,0.20,3.00,2,110.00,-19.02,-95.76,139.47,,127.27,4.87,-2.94,147.84,-69.00,-48.00,-220.00,122.00,144.00,50.00,3.10,2.10,26.10,20.00,-1,356.00,1.00,1,0,0,0,0,6.83,1,0,1,,
288050,-31,0,0,-31,1,-31,24911,1,1,1,2.00,0.20,3.00,2,110.00,-12.07,-109.59,137.02,,121.27,4.59,-3.06,48.84,-69.00,-48.00,-220.00,122.00,144.00,50.00,3.10,2.10,26.10,20.00,-1,359.00,1.00,1,0,0,0,0,6.43,1,0,1,,
