Millis,m_currentPosition,m_pressedButtonDebug,m_bytesToSent,CurrentPosition,CurrentDirection,TargetPosition,MSStopped,startButton,stopButton,parkingButton,m_P,m_I,m_D,m_goalType,m_goal,m_lastError,m_errorSum,m_lastFilteredYaw,yaw,filteredYaw,pitch,roll,freq,magMin[0],magMin[1],magMin[2],magMax[0],magMax[1],magMax[2],m_speed,m_speed.tripMileage,m_speed.totalMileage,m_speed.waterTemp,m_lampIntensity,m_wind.apparentAngle,m_wind.apparentSpeed,m_wind.displayInKnots,m_wind.displayInMpS,m_depth.anchorAlarm,m_depth.deepAlarm,m_depth.defective,m_depth.depthBelowTransductor,m_depth.metricUnits,m_depth.shallowAlarm,m_depth.unknown,Position
1050,1,0,0,1,1,1,54,0,1,1,5,0.5,10,0,0,0,0,9.24,128.18,9.54,-13.79,-33.18,51.58,-69,-20,-220,115,140,-1,-1,-1,-1,19,-1,221,0,1,0,0,0,0,41.45,1,0,1,
2050,1,0,0,1,1,1,54,0,1,1,5,0.5,10,0,0,0,0,15.84,112.7,16.21,11.45,-11.88,98.62,-69,-20,-220,115,140,-1,1,-1,-1,19,-1,221,0,1,0,0,0,0,41.45,1,0,1,
3050,1,0,0,1,1,1,54,0,1,1,5,0.5,10,0,0,0,0,21.32,97.28,21.61,13.05,-10.29,51.53,-69,-20,-220,115,140,-1,1,-1,-1,19,-1,225,0.3,1,0,0,0,0,41.45,1,0,1,
4050,1,0,0,1,1,1,54,0,1,1,5,0.5,10,0,0,0,0,25.54,80.13,25.67,8.81,-10.51,49.06,-69,-20,-220,115,140,-1,1,-1,-1,19,-1,221,0.3,1,0,0,0,0,13.75,1,0,1,
5050,1,0,0,1,1,1,54,0,1,1,5,0.5,10,0,0,0,0,28.36,64.46,28.5,7.67,-10.32,51.41,-69,-20,-220,115,140,-1,1,-1,-1,19,-1,221,0.3,1,0,0,0,0,41.73,1,0,1,
6050,1,0,0,1,1,1,54,0,1,1,5,0.5,10,0,0,0,0,30.1,47.92,30.16,4.37,-8.62,48.73,-69,-20,-220,115,140,-1,1,-1,-1,19,-1,218,0.3,1,0,0,0,0,41.73,1,0,1,
7050,1,0,0,1,1,1,54,0,1,1,5,0.5,10,0,0,0,0,30.77,34.05,30.79,3.53,-7.59,51.4,-69,-20,-220,115,140,-1,1,-1,-1,19,-1,218,0.3,1,0,0,0,0,41.73,1,0,1,
8050,1,0,0,1,1,1,54,0,1,1,5,0.5,10,0,0,0,0,30.7,23.93,30.67,2.63,-5.16,50.67,-69,-20,-220,115,140,-1,1,-1,-1,19,-1,219,0.3,1,0,0,0,0,41.76,1,0,1,
9070,1,0,0,1,1,1,54,0,1,1,5,0.5,10,0,0,0,0,30.02,14.98,29.96,0.83,-4.02,23.15,-69,-20,-220,115,140,-1,1,-1,-1,19,-1,214,0.3,1,0,0,0,0,41.76,1,0,1,
10050,1,0,0,1,1,1,54,0,1,1,5,0.5,10,0,0,0,0,28.96,9.93,28.89,1.23,-1.17,51.26,-69,-20,-220,115,140,-1,1,-1,-1,19,-1,214,1.1,1,0,0,0,0,41.76,1,0,1,
11070,1,0,0,1,1,1,54,0,1,1,5,0.5,10,0,0,0,0,27.67,6.27,27.58,1.23,-1.41,23.3,-69,-20,-220,115,140,-1,1,-1,-1,19,-1,210,1.1,1,0,0,0,0,41.76,1,0,1,
12050,1,0,0,1,1,1,54,0,1,1,5,0.5,10,0,0,0,0,26.28,2.35,26.19,1.16,-0.96,51.41,-69,-20,-220,115,140,-1,1,-1,-1,19,-1,208,1.1,1,0,0,0,0,41.76,1,0,1,
13070,1,0,0,1,1,1,54,0,1,1,5,0.5,10,0,0,0,0,24.76,1.19,24.67,0.37,0.29,23.3,-69,-20,-220,115,140,-1,0.9,-1,-1,19,-1,204,1.1,1,0,0,0,0,41.76,1,0,1,
14050,1,0,0,1,1,1,54,0,1,1,5,0.5,10,0,0,0,0,23.33,0.55,23.25,1.47,-0.12,50.66,-69,-20,-220,115,140,-1,0.9,-1,-1,19,-1,199,0.3,1,0,0,0,0,41.94,1,0,1,
15056,1,0,0,1,1,1,54,0,1,1,5,0.5,10,0,0,0,0,28.11,0.35,27.99,1.17,1.91,133.19,-69,-20,-220,115,140,-1,0.9,-1,-1,19,-1,203,0.3,1,0,0,0,0,41.94,1,0,1,
16050,1,0,0,1,1,1,54,0,1,1,5,0.5,10,0,0,0,0,26.44,0.91,26.35,0.68,1.15,48.79,-69,-20,-220,115,140,-1,0.9,-1,-1,19,-1,199,0.3,1,0,0,0,0,41.94,1,0,1,
17050,1,0,0,1,1,1,54,0,1,1,5,0.5,10,0,0,0,0,24.9,3.03,24.87,1.76,2.38,97.54,-69,-20,-220,115,140,-1,0.9,-1,-1,19,-1,200,0.4,1,0,0,0,0,41.94,1,0,1,
18050,1,0,0,1,1,1,54,0,1,1,5,0.5,10,0,0,0,0,23.63,4.26,23.58,-0.34,1.98,48.87,-69,-20,-220,115,140,-1,0.9,-1,-1,19,-1,194,0.4,1,0,0,0,0,41.94,1,0,1,
19050,1,0,0,1,1,1,54,0,1,1,5,0.5,10,0,0,0,0,22.52,6.09,22.48,2.45,1.99,51.11,-69,-20,-220,115,140,-1,0.9,-1,-1,19,-1,193,0.4,1,0,0,0,0,42.43,1,0,1,
20050,1,0,0,1,1,1,54,0,1,1,5,0.5,10,0,0,0,0,21.57,7.09,21.51,1.08,2.7,49.44,-69,-20,-220,115,140,-1,0.9,-1,-1,19,-1,196,0.3,1,0,0,0,0,42.43,1,0,1,
21050,1,0,0,1,1,1,54,0,1,1,5,0.5,10,0,0,0,0,20.71,9.26,20.68,-0.07,3.58,51.46,-69,-20,-220,115,140,-1,0.9,-1,-1,19,-1,187,0.3,1,0,0,0,0,42.43,1,0,1,
22050,1,0,0,1,1,1,54,0,1,1,5,0.5,10,0,0,0,0,20.09,11.54,20.06,1.75,4.12,48.83,-69,-20,-220,115,140,-1,0.9,-1,-1,19,-1,182,0.3,1,0,0,0,0,42.43,1,0,1,
23050,1,0,0,1,0,1,0,0,1,1,5,0.5,10,2,360,-13.25,2,19.62,13.36,19.6,0.63,3.35,51.48,-69,-20,-220,115,140,-1,0.8,-1,-1,19,-1,182,0.3,1,0,0,0,0,42.31,1,0,1,
24069,1,0,0,1,0,1,0,0,1,1,5,0.5,10,2,360,-15.52,2,19.29,15.78,19.28,-0.51,3.45,24.1,-69,-20,-220,115,140,-1,0.8,-1,-1,19,-1,169,0.8,1,0,0,0,0,7.71,1,0,1,
25050,1,0,0,1,0,1,0,0,1,1,5,0.5,10,2,360,-18.26,2,19.17,18.34,19.17,1.48,4.68,48.39,-69,-20,-220,115,140,-1,0.7,-1,-1,19,-1,169,0.8,1,0,0,0,0,7.71,1,0,1,
26050,1,0,0,1,0,1,0,0,1,1,5,0.5,10,2,360,-20.3,2,19.17,20.5,19.18,-0.63,3.94,23.73,-69,-20,-220,115,140,-1,0.7,-1,-1,19,-1,169,0.8,1,0,0,0,0,42.28,1,0,1,
27051,1,0,0,1,0,1,0,0,1,1,5,0.5,10,2,360,-23.71,2,19.35,23.93,19.36,-0.46,4.86,49.37,-69,-20,-220,115,140,-1,0.7,-1,-1,19,-1,164,0.8,1,0,0,0,0,42.28,1,0,1,
28050,1,0,0,1,0,1,0,0,1,1,5,0.5,10,2,360,-26.32,2,19.7,26.37,19.71,-0.44,5.16,102.5,-69,-20,-220,115,140,-1,0.7,-1,-1,19,-1,160,0.8,1,0,0,0,0,42.28,1,0,1,
29050,1,0,0,1,0,1,0,0,1,1,5,0.5,10,2,360,-29.6,2,20.19,29.83,20.23,0.41,4.15,48.83,-69,-20,-220,115,140,-1,0.7,-1,-1,19,-1,162,0.8,1,0,0,0,0,42.28,1,0,1,
30050,1,0,0,1,0,1,0,0,1,1,5,0.5,10,2,360,-33.93,2,20.92,34.18,20.95,-2.29,5.54,51.58,-69,-20,-220,115,140,-1,0.5,-1,-1,19,-1,155,0.8,1,0,0,0,0,9.2,1,0,1,
31050,1,0,0,1,1,-130,30600,0,1,1,5,0.5,10,2,360,-38.7,2,21.84,38.93,21.9,-0.92,4.43,48.89,-69,-20,-220,115,140,-1,0.5,-1,-1,19,-1,151,0.8,1,0,0,0,0,42.49,1,0,1,
32050,1,0,0,1,0,1,0,0,1,1,5,0.5,10,2,360,-43,2,23.01,43.51,23.08,-2,4.51,48.18,-69,-20,-220,115,140,-1,0.5,-1,-1,19,-1,148,0.8,1,0,0,0,0,42.49,1,0,1,
33050,1,0,0,1,0,1,0,0,1,1,5,0.5,10,2,360,-49.4,2,24.44,49.54,24.53,-2.02,3.65,51.48,-69,-20,-220,115,140,-1,0.4,-1,-1,19,-1,146,1,1,0,0,0,0,42.49,1,0,1,
34050,1,0,0,1,0,1,0,0,1,1,5,0.5,10,2,360,-57.11,2,26.2,57.58,26.31,-3.39,3.17,48.76,-69,-20,-220,115,140,-1,0.4,-1,-1,19,-1,145,1,1,0,0,0,0,42.49,1,0,1,
35068,1,0,0,1,0,1,0,0,1,1,5,0.5,10,2,360,-63.44,2,28.28,64,28.46,-3.85,2.35,23.99,-69,-20,-220,115,140,-1,0.3,-1,-1,19,-1,138,1,1,0,0,0,0,42.49,1,0,1,
36050,1,0,0,1,0,1,0,0,1,1,5,0.5,10,2,360,-70.71,2,30.69,71,30.79,-3.38,1.88,48.8,-69,-20,-220,115,140,-1,0.3,-1,-1,19,-1,138,0.3,1,0,0,0,0,42.73,1,0,1,
37057,1,0,0,1,0,1,0,0,1,1,5,0.5,10,2,360,-78.53,2,33.28,79.11,33.48,-2.96,1.91,136.91,-69,-20,-220,115,140,-1,0.3,-1,-1,19,-1,137,0.3,1,0,0,0,0,42.73,1,0,1,
38050,1,0,0,1,0,1,0,0,1,1,5,0.5,10,2,360,-86.1,2,36.36,86.26,36.48,-2.25,0.73,48.79,-69,-20,-220,115,140,-1,0.2,-1,-1,19,-1,137,0.3,1,0,0,0,0,42.61,1,0,1,
39050,1,0,0,1,0,1,0,0,1,1,5,0.5,10,2,360,-94.05,2,39.58,94.8,39.79,-4.27,-0.04,105.93,-69,-20,-220,115,140,-1,0.2,-1,-1,19,-1,131,0.3,1,0,0,0,0,42.61,1,0,1,
40050,1,0,0,1,0,1,0,0,1,1,5,0.5,10,2,360,-102.94,2,43.27,103.28,43.42,-1.12,0.32,51.37,-69,-20,-220,115,140,-1,0.2,-1,-1,19,-1,134,0.3,1,0,0,0,0,42.61,1,0,1,
41050,1,0,0,1,0,1,0,0,1,1,5,0.5,10,2,360,-110.06,2,47.11,110.45,47.26,-1.95,0.08,49.12,-69,-20,-220,115,140,-1,0.2,-1,-1,19,-1,134,0.3,1,0,0,0,0,19.75,1,0,1,
42050,1,0,0,1,0,1,0,0,1,1,5,0.5,10,2,360,-118.36,2,51.13,118.7,51.38,-0.66,0.69,51.46,-69,-20,-220,115,140,-1,0.2,-1,-1,19,-1,132,0.5,1,0,0,0,0,42.89,1,0,1,
43051,1,0,0,1,1,-433,42600,0,1,1,5,0.5,10,2,360,-124.64,2,55.48,124.76,55.7,0.05,-0.57,48.74,-69,-20,-220,115,140,-1,0.1,-1,-1,19,-1,128,0.5,1,0,0,0,0,42.89,1,0,1,
44050,1,0,0,1,0,1,0,0,1,1,5,0.5,10,2,360,-129.65,2,59.79,129.96,60.06,0.37,1.43,50.77,-69,-20,-220,115,140,-1,0.1,-1,-1,19,-1,124,0.5,1,0,0,0,0,42.89,1,0,1,
45050,1,0,0,1,0,1,0,0,1,1,5,0.5,50,2,360,-134.23,2,64.27,134.59,64.44,1.41,0.69,48.75,-69,-20,-220,115,140,-1,0.1,-1,-1,19,-1,124,0.7,1,0,0,0,0,42.89,1,0,1,
46069,1,0,0,1,0,1,0,0,1,1,5,0.5,50,2,360,-138.89,2,68.62,138.97,68.98,1.38,1.28,24.09,-69,-20,-220,115,140,-1,0.1,-1,-1,19,-1,122,0.7,1,0,0,0,0,42.82,1,0,1,
47050,1,0,0,1,0,1,0,0,1,1,5,0.5,50,2,360,-141.88,2,72.99,142.06,73.25,2.07,2.09,48.8,-69,-20,-220,115,140,-1,0.1,-1,-1,19,-1,120,0.7,1,0,0,0,0,42.82,1,0,1,
48057,1,0,0,1,0,1,0,0,1,1,5,0.5,50,2,360,-144.73,2,77.29,144.8,77.58,2.76,2.36,135.94,-69,-20,-220,115,140,-1,0.1,-1,-1,19,-1,122,0.8,1,0,0,0,0,42.82,1,0,1,
49050,1,0,0,1,0,1,0,0,1,1,5,0.5,50,2,360,-144.92,2,81.41,144.99,81.65,3,2.12,51.96,-69,-20,-220,115,140,-1,0.1,-1,-1,19,-1,119,0.8,1,0,0,0,0,42.95,1,0,1,
50050,1,0,0,1,0,1,0,0,1,1,5,0.5,50,2,360,-147.76,2,85.38,147.85,85.62,2.02,2.04,24.19,-69,-20,-220,115,140,-1,0.1,-1,-1,19,-1,116,0.8,1,0,0,0,0,42.95,1,0,1,
51050,1,0,0,1,0,1,0,0,1,1,5,0.5,50,2,360,-147.89,2,89.17,148.12,89.39,1.52,0.97,51.41,-69,-20,-220,115,140,-1,0.1,-1,-1,19,-1,116,1,1,0,0,0,0,42.95,1,0,1,
52050,1,0,0,1,0,1,0,0,1,1,5,0.5,50,2,360,-148.87,2,92.78,148.65,93,3.39,2.26,105.49,-69,-20,-220,115,140,-1,0.1,-1,-1,19,-1,115,1,1,0,0,0,0,19.75,1,0,1,
53050,1,0,0,1,0,1,0,0,1,1,5,0.5,50,2,360,-148.6,2,96.18,148.71,96.38,2.74,1.26,51.31,-69,-20,-220,115,140,-1,0,-1,-1,19,-1,119,1,1,0,0,0,0,19.75,1,0,1,
54050,1,0,0,1,0,1,0,0,1,1,5,0.5,50,2,360,-148.57,2,99.45,148.47,99.56,1.64,1.65,49,-69,-20,-220,115,140,-1,0,-1,-1,19,-1,117,1.1,1,0,0,0,0,42.95,1,0,1,
55050,1,0,0,1,1,-887,54600,0,1,1,5,0.5,50,2,360,-148.19,2,102.36,148.16,102.53,2.38,2.22,51.81,-69,-20,-220,115,140,-1,0,-1,-1,19,-1,118,1.1,1,0,0,0,0,42.95,1,0,1,
56050,1,0,0,1,0,1,0,0,1,1,5,0.5,50,2,360,-149.74,2,105.21,149.67,105.35,2.63,1.76,51.25,-69,-20,-220,115,140,-1,0,-1,-1,19,-1,119,1.1,1,0,0,0,0,42.95,1,0,1,
57050,1,0,0,1,0,1,0,0,1,1,5,0.5,50,2,360,-149.07,2,107.94,149.03,108.04,1.94,1.77,48.69,-69,-20,-220,115,140,-1,0,-1,-1,19,-1,119,1.2,1,0,0,0,0,42.95,1,0,1,
58050,34,0,0,34,2,151,0,1,1,1,5,0.5,50,0,360,0,2,110.38,148.61,110.53,2.18,1.41,50.78,-69,-20,-220,115,140,-1,0,-1,-1,19,-1,119,1.2,1,0,0,0,0,42.95,1,0,1,
59069,86,0,0,86,2,151,0,1,1,1,5,0.5,50,0,360,0,2,112.72,149.11,112.91,2.36,0.86,23.56,-69,-20,-220,115,140,-1,0,-1,-1,19,-1,118,1.2,1,0,0,0,0,42.85,1,0,1,
60050,138,0,0,138,2,151,0,1,1,1,5,0.5,50,0,360,0,2,114.98,149.83,115.11,0.41,1.22,51.41,-69,-20,-220,115,140,-1,0,-1,-1,19,-1,117,1.2,1,0,0,0,0,7.71,1,0,1,
61056,151,0,0,151,1,151,60400,1,1,1,5,0.5,50,0,360,0,2,117.06,148.97,117.2,1.89,0.9,147.06,-69,-20,-220,115,140,-1,0,-1,-1,19,-1,118,1.2,1,0,0,0,0,42.98,1,0,1,
62050,121,0,0,121,0,-1349,0,1,1,1,5,0.5,50,0,360,0,2,119.04,148.67,119.11,1.71,1.73,51.32,-69,-20,-220,115,140,-1,0,-1,-1,19,-1,116,1.2,1,0,0,0,0,42.98,1,0,1,
63050,73,0,0,73,0,-1349,0,1,1,1,5,0.5,50,0,360,0,2,120.83,149.53,120.93,1,0.88,97.92,-69,-20,-220,115,140,-1,0,-1,-1,19,-1,118,1.2,1,0,0,0,0,42.98,1,0,1,
64050,22,0,0,22,0,-1349,0,1,1,1,5,0.5,50,0,360,0,2,122.57,149.35,122.67,2.37,1.99,49.43,-69,-20,-220,115,140,-1,0,-1,-1,19,-1,117,1.2,1,0,0,0,0,42.98,1,0,1,
65050,-8,0,0,-8,1,-8,64700,0,1,1,5,0.5,50,0,360,0,2,124.26,150.47,124.33,2.19,1.29,51.15,-69,-20,-220,115,140,-1,0,-1,-1,19,-1,118,1.2,1,0,0,0,0,42.85,1,0,1,
66050,17,0,0,17,2,1492,0,0,1,1,5,0.5,50,0,360,0,2,125.82,150.83,125.92,0.96,1.46,48.85,-69,-20,-220,115,140,-1,0,-1,-1,19,-1,117,1.2,1,0,0,0,0,42.85,1,0,1,
67050,68,0,0,68,2,1492,0,1,1,1,5,0.5,50,0,360,0,2,127.35,149.76,127.42,2.81,1.3,51.39,-69,-20,-220,115,140,-1,0,-1,-1,19,-1,118,1.2,1,0,0,0,0,42.85,1,0,1,
68050,119,0,0,119,2,1492,0,1,1,1,5,0.5,50,0,360,0,2,128.7,150.22,128.78,1.69,1.76,49.44,-69,-20,-220,115,140,-1,0,-1,-1,19,-1,116,1.2,1,0,0,0,0,42.85,1,0,1,
69050,165,0,0,165,2,1492,0,1,1,1,5,0.5,50,0,360,0,2,130.02,150.29,130.09,1.32,0.57,52.02,-69,-20,-220,115,140,-1,0,-1,-1,19,-1,119,1.2,1,0,0,0,0,42.85,1,0,1,
70069,217,0,0,217,2,1492,0,1,1,1,5,0.5,50,0,360,0,2,131.25,149.94,131.34,1.38,2.42,23.56,-69,-20,-220,115,140,-1,0,-1,-1,19,-1,119,1.1,1,0,0,0,0,42.82,1,0,1,
71050,269,0,0,269,2,1492,0,1,1,1,5,0.5,50,0,360,0,2,132.39,149.83,132.45,2.27,0.73,50.64,-69,-20,-220,115,140,-1,0,-1,-1,19,-1,119,1.1,1,0,0,0,0,42.82,1,0,1,
72055,318,0,0,318,2,1492,0,1,1,1,5,0.5,50,0,360,0,2,133.45,150.29,133.52,1.67,1.54,146.89,-69,-20,-220,115,140,-1,0,-1,-1,19,-1,117,1.1,1,0,0,0,0,42.82,1,0,1,
73050,371,0,0,371,2,1492,0,1,1,1,5,0.5,50,0,360,0,2,134.49,150.5,134.55,2.07,1.52,48.27,-69,-20,-220,115,140,-1,0,-1,-1,19,-1,117,1,1,0,0,0,0,42.82,1,0,1,
74050,425,0,0,425,2,1492,0,1,1,1,5,0.5,50,0,360,0,2,135.51,150.82,135.53,0.87,0.8,90.32,-69,-20,-220,115,140,-1,0,-1,-1,19,-1,117,1,1,0,0,0,0,42.82,1,0,1,
75051,472,0,0,472,2,472,0,1,0,1,5,0.5,50,0,360,0,2,136.4,150.48,136.45,2.41,1.78,49.44,-69,-20,-220,115,140,-1,0,-1,-1,19,-1,116,1,1,0,0,0,0,42.82,1,0,1,
76050,240,0,0,240,1,240,10214,1,0,1,5,0.5,50,0,360,0,2,137.26,149.82,137.29,1.73,1.72,51.01,-69,-20,-220,115,140,-1,0,-1,-1,19,-1,117,1,1,0,0,0,0,42.82,1,0,1,
77050,240,0,0,240,1,240,10214,1,0,1,5,0.5,50,0,360,0,2,138.03,149.96,138.08,1.98,1.43,48.89,-69,-20,-220,115,140,-1,0,-1,-1,19,-1,117,1,1,0,0,0,0,42.82,1,0,1,
78050,226,0,0,226,0,0,0,1,0,1,5,0.5,50,0,360,0,2,138.77,149.55,138.8,1.98,1.62,52.15,-69,-20,-220,115,140,-1,0,-1,-1,19,-1,113,1,1,0,0,0,0,42.82,1,0,1,
79050,175,0,0,175,0,0,0,1,1,1,5,0.5,50,0,360,0,2,139.47,150.14,139.49,1.23,1.56,49.4,-69,-20,-220,115,140,-1,0,-1,-1,19,-1,115,1,1,0,0,0,0,19.75,1,0,1,
80050,127,0,0,127,0,0,0,1,1,1,5,0.5,50,0,360,0,2,140.07,149.98,140.11,1.79,1.56,48.77,-69,-20,-220,115,140,-1,0,-1,-1,19,-1,116,1,1,0,0,0,0,42.85,1,0,1,
81070,82,0,0,82,0,0,0,1,1,1,5,0.5,50,0,360,0,2,140.68,151.16,140.74,2.04,1.21,23.95,-69,-20,-220,115,140,-1,0,-1,-1,19,-1,115,1,1,0,0,0,0,42.7,1,0,1,
82050,34,0,0,34,0,0,0,1,1,1,5,0.5,50,0,360,0,2,141.3,150.71,141.34,1.3,1.86,49.44,-69,-20,-220,115,140,-1,0,-1,-1,19,-1,116,1,1,0,0,0,0,42.7,1,0,1,
83057,0,0,0,0,1,0,17214,1,1,1,5,0.5,50,0,360,0,2,141.86,148.68,141.89,1.94,0.95,135.5,-69,-20,-220,115,140,-1,0,-1,-1,19,-1,115,1,1,0,0,0,0,21.24,1,0,1,
84050,0,0,0,0,1,0,17214,1,1,1,5,0.5,50,0,360,0,2,142.29,149.73,142.31,2.51,2.57,48.79,-69,-20,-220,115,140,-1,0,-1,-1,19,-1,118,1,1,0,0,0,0,21.24,1,0,1,
85050,0,0,0,0,0,-26,0,1,1,1,5,0.5,50,2,150,-0.87,1.57,142.77,150.8,142.8,0.99,0.8,105.22,-69,-20,-220,115,140,-1,0,-1,-1,19,-1,115,1,1,0,0,0,0,21.24,1,0,1,
86050,-26,0,0,-26,1,-27,20064,1,1,1,5,0.5,50,2,150,-1.75,0.35,143.27,152.01,143.29,0.68,0.65,49.36,-69,-20,-220,115,140,-1,0,-1,-1,19,-1,113,1,1,0,0,0,0,21.24,1,0,1,
87050,-26,0,0,-26,1,-26,20064,1,1,1,5,0.5,50,2,150,-2.38,-2.26,143.83,152.34,143.85,1.78,1.27,51.36,-69,-20,-220,115,140,-1,0,-1,-1,19,-1,115,1,1,0,0,0,0,21.24,1,0,1,
88050,-26,0,0,-26,1,-26,20064,1,1,1,5,0.5,50,2,150,-0.77,-3.07,144.27,150.82,144.29,2.2,1.95,51.38,-69,-20,-220,115,140,-1,0,-1,-1,19,-1,118,1,1,0,0,0,0,42.61,1,0,1,
89050,-26,0,0,-26,1,-28,20064,1,1,1,5,0.5,50,2,150,-1.7,-3.99,144.66,151.73,144.69,1.86,0.24,49.47,-69,-20,-220,115,140,-1,0,-1,-1,19,-1,114,0.9,1,0,0,0,0,42.61,1,0,1,
90050,-26,0,0,-26,1,-26,20064,1,1,1,5,0.5,50,2,150,-1.05,-5.66,145.1,150.88,145.12,1.63,2.52,51.35,-69,-20,-220,115,140,-1,0,-1,-1,19,-1,118,0.9,1,0,0,0,0,42.61,1,0,1,
91051,-26,0,0,-26,1,-26,20064,1,1,1,5,0.5,50,2,150,-3.01,-7.97,145.53,152.83,145.56,2.26,0.93,48.8,-69,-20,-220,115,140,-1,0,-1,-1,19,-1,113,0.9,1,0,0,0,0,42.61,1,0,1,
92069,-33,0,0,-33,1,-33,26214,1,1,1,5,0.5,50,2,150,-1.91,-10.4,145.96,151.99,145.99,1.37,1.79,23.99,-69,-20,-220,115,140,-1,0,-1,-1,19,-1,114,1,1,0,0,0,0,42.64,1,0,1,
93050,-35,0,0,-35,1,-35,26214,1,1,1,5,0.5,50,2,150,-1.81,-12.26,146.32,151.87,146.34,1.49,1.21,48.72,-69,-20,-220,115,140,-1,0,-1,-1,19,-1,116,1,1,0,0,0,0,42.64,1,0,1,
94050,-35,0,0,-35,1,-35,26214,1,1,1,5,0.5,50,2,150,-2.48,-14.53,146.67,152.17,146.69,1.49,0.78,23.28,-69,-20,-220,115,140,-1,0,-1,-1,19,-1,111,1,1,0,0,0,0,42.58,1,0,1,
95050,-35,0,0,-35,1,-35,26214,1,1,1,5,0.5,50,2,150,-1.04,-15.9,146.97,150.91,146.98,2.88,1.98,48.28,-69,-20,-220,115,140,-1,0,-1,-1,19,-1,115,1,1,0,0,0,0,42.58,1,0,1,
96050,-30,0,0,-30,1,-30,30274,1,1,1,5,0.5,50,2,150,-3.12,-18.01,147.27,153.09,147.28,1.96,1.92,92.87,-69,-20,-220,115,140,-1,0,-1,-1,19,-1,116,1,1,0,0,0,0,42.58,1,0,1,
97050,-30,0,0,-30,1,-30,30274,1,1,1,5,0.5,50,2,150,-2.62,-20.66,147.6,152.63,147.61,1.53,0.53,51.45,-69,-20,-220,115,140,-1,0,-1,-1,19,-1,115,1,1,0,0,0,0,19.72,1,0,1,
98050,-30,0,0,-30,1,-33,30274,1,1,1,5,0.5,50,2,150,-2.09,-22.97,147.89,152,147.9,1.73,1.62,49.13,-69,-20,-220,115,140,-1,0,-1,-1,19,-1,115,1,1,0,0,0,0,42.58,1,0,1,
99050,-30,0,0,-30,1,-30,30274,1,1,1,5,0.5,50,2,150,-1.92,-25.19,148.15,151.94,148.16,1.96,1.04,51.54,-69,-20,-220,115,140,-1,0,-1,-1,19,-1,118,1,1,0,0,0,0,42.58,1,0,1,
100050,-30,0,0,-30,1,-33,30274,1,1,1,5,0.5,50,2,150,-0.49,-26.55,148.35,150.47,148.36,1.81,1.53,48.8,-69,-20,-220,115,140,-1,0,-1,-1,19,-1,117,1,1,0,0,0,0,42.58,1,0,1,
101050,-30,0,0,-30,1,-30,30274,1,1,1,5,0.5,50,2,150,0.77,-26.24,148.45,149.21,148.45,1.89,0.94,50.85,-69,-20,-220,115,140,-1,0,-1,-1,19,-1,116,1,1,0,0,0,0,22.77,1,0,1,
102050,-30,0,0,-30,1,-30,30274,1,1,1,5,0.5,50,2,150,0.92,-25.75,148.52,149.23,148.53,1,1.09,48.76,-69,-20,-220,115,140,-1,0,-1,-1,19,-1,116,1,1,0,0,0,0,19.75,1,0,1,
103069,-24,0,0,-24,1,-24,37320,1,1,1,5,0.5,50,2,150,2.82,-23.19,148.49,147.13,148.49,2.22,1,23.89,-69,-20,-220,115,140,-1,0,-1,-1,19,-1,117,1,1,0,0,0,0,42.49,1,0,1,
104050,-24,0,0,-24,2,-18,0,1,1,1,5,0.5,50,2,150,1.2,-21.48,148.45,148.86,148.45,1.79,1.95,51.32,-69,-20,-220,115,140,-1,0,-1,-1,19,-1,119,1,1,0,0,0,0,42.49,1,0,1,
105057,-19,0,0,-19,1,-19,38770,1,1,1,5,0.5,50,2,150,0.71,-20.6,148.49,149.41,148.49,1.22,0.16,137.21,-69,-20,-220,115,140,-1,0,-1,-1,19,-1,116,1,1,0,0,0,0,42.49,1,0,1,
106050,-19,0,0,-19,1,-19,38770,1,1,1,5,0.5,50,2,150,-0.34,-20.53,148.57,150.3,148.57,1.04,0.95,52.22,-69,-20,-220,115,140,-1,0,-1,-1,19,-1,116,1,1,0,0,0,0,42.52,1,0,1,
107051,-19,0,0,-19,1,-19,38770,1,1,1,5,0.5,50,2,150,0.6,-20.16,148.65,149.33,148.65,2.38,2.07,102.21,-69,-20,-220,115,140,-1,0,-1,-1,19,-1,118,1,1,0,0,0,0,42.52,1,0,1,
108050,-15,0,0,-15,1,-15,42271,1,1,1,5,0.5,50,2,150,2.69,-17.92,148.61,147.55,148.61,1.84,0.43,51.39,-69,-20,-220,115,140,-1,0,-1,-1,19,-1,123,1,1,0,0,0,0,42.52,1,0,1,
109050,-11,0,0,-11,1,-11,43264,1,1,1,5,0.5,50,2,150,2.61,-15.26,148.53,147.46,148.52,0.97,0.55,49.09,-69,-20,-220,115,140,-1,0,-1,-1,19,-1,118,0.9,1,0,0,0,0,42.52,1,0,1,
110050,-7,0,0,-7,1,-5,44270,1,1,1,5,0.5,50,2,150,2.53,-12.54,148.46,147.46,148.45,1.18,0.87,51.89,-69,-20,-220,115,140,-1,0,-1,-1,19,-1,119,0.9,1,0,0,0,0,42.49,1,0,1,
111050,-7,0,0,-7,2,-2,0,1,1,1,5,0.5,50,2,150,2.59,-9.91,148.39,147.3,148.39,2.48,2.04,49.44,-69,-20,-220,115,140,-1,0,-1,-1,19,-1,120,0.9,1,0,0,0,0,42.49,1,0,1,
112050,-3,0,0,-3,1,-3,45714,1,1,1,5,0.5,50,2,150,2,-7.33,148.32,148.16,148.32,1.48,0.65,48.73,-69,-20,-220,115,140,-1,0,-1,-1,19,-1,121,0.9,1,0,0,0,0,42.49,1,0,1,
113050,-3,0,0,-3,1,-3,45714,1,1,1,5,0.5,50,2,150,2.52,-4.89,148.27,147.32,148.27,1.46,2,50.66,-69,-20,-220,115,140,-1,0,-1,-1,19,-1,118,0.9,1,0,0,0,0,10.7,1,0,1,
114070,1,0,0,1,1,1,48270,1,1,1,5,0.5,50,2,150,1.84,-2.64,148.23,148.05,148.23,1.33,0.58,23.61,-69,-20,-220,115,140,-1,0,-1,-1,19,-1,118,0.9,1,0,0,0,0,42.55,1,0,1,
115050,1,0,0,1,1,1,48270,1,1,1,5,0.5,50,2,150,2.79,-0.22,148.19,147.18,148.19,2.25,1.96,51.55,-69,-20,-220,115,140,-1,0,-1,-1,19,-1,118,0.9,1,0,0,0,0,42.55,1,0,1,
116057,6,0,0,6,1,6,50214,1,1,1,5,0.5,50,2,150,2.44,2.61,148.13,147.35,148.13,2.18,1.69,136.61,-69,-20,-220,115,140,-1,0,-1,-1,19,-1,120,0.9,1,0,0,0,0,0,1,0,1,
117050,6,0,0,6,1,6,50214,1,1,1,5,0.5,50,2,150,3.64,6.12,148.05,146.32,148.04,1.21,1.25,52.05,-69,-20,-220,115,140,-1,0,-1,-1,19,-1,121,0.9,1,0,0,0,0,42.64,1,0,1,
118050,10,0,0,10,1,10,52273,1,1,1,5,0.5,50,2,150,3.13,9.39,147.95,146.92,147.95,1.76,0.72,106.93,-69,-20,-220,115,140,-1,0,-1,-1,19,-1,117,0.9,1,0,0,0,0,42.64,1,0,1,
119050,10,0,0,10,1,10,52273,1,1,1,5,0.5,50,2,150,3.2,12.39,147.89,146.84,147.89,1.4,1.78,50.69,-69,-20,-220,115,140,-1,0,-1,-1,19,-1,121,0.9,1,0,0,0,0,42.64,1,0,1,
120050,10,0,0,10,2,15,0,1,1,1,5,0.5,50,2,150,3.1,15.47,147.84,146.82,147.83,2.47,0.63,52.04,-69,-20,-220,115,140,-1,0,-1,-1,19,-1,120,0.9,1,0,0,0,0,42.43,1,0,1,
121050,14,0,0,14,1,14,54693,1,1,1,5,0.5,50,2,150,3.55,19.17,147.74,146.5,147.74,0.78,1.65,49.45,-69,-20,-220,115,140,-1,0,-1,-1,19,-1,114,0.9,1,0,0,0,0,42.43,1,0,1,
122050,14,0,0,14,1,18,54693,1,1,1,5,0.5,50,2,150,2.1,21.21,147.73,147.85,147.73,1.58,0.74,52.13,-69,-20,-220,115,140,-1,0,-1,-1,19,-1,117,1,1,0,0,0,0,42.43,1,0,1,
123051,18,0,0,18,1,18,57271,1,1,1,5,0.5,50,2,150,2.56,23.79,147.72,147.41,147.71,1.85,1.06,48.88,-69,-20,-220,115,140,-1,0.1,-1,-1,19,-1,114,1,1,0,0,0,0,42.46,1,0,1,
124050,18,0,0,18,1,18,57271,1,1,1,5,0.5,50,2,150,1.92,25.84,147.71,148.29,147.71,1.57,0.94,50.58,-69,-20,-220,115,140,-1,0.1,-1,-1,19,-1,116,1,1,0,0,0,0,42.46,1,0,1,
125070,18,0,0,18,1,18,57271,1,1,1,5,0.5,50,2,150,1.68,27.43,147.75,148.24,147.75,1.42,0.89,23.51,-69,-20,-220,115,140,-1,0.1,-1,-1,19,-1,118,1,1,0,0,0,0,42.46,1,0,1,
126050,18,0,0,18,1,18,57271,1,1,1,5,0.5,50,2,150,1.04,28.55,147.81,148.8,147.81,2.22,1.75,51.42,-69,-20,-220,115,140,-1,0.3,-1,-1,19,-1,119,1,1,0,0,0,0,42.46,1,0,1,
127056,18,0,0,18,1,18,57271,1,1,1,5,0.5,50,2,150,2.87,30.88,147.82,147.34,147.82,1.93,1.03,136.24,-69,-20,-220,115,140,-1,0.3,-1,-1,19,-1,119,1,1,0,0,0,0,42.46,1,0,1,
128050,18,0,0,18,1,18,57271,1,1,1,5,0.5,50,2,150,2.44,33.75,147.78,147.63,147.78,1.71,1.51,48.8,-69,-20,-220,115,140,-1,0.3,-1,-1,19,-1,119,1,1,0,0,0,0,42.46,1,0,1,
129050,23,0,0,23,1,23,63273,1,1,1,5,0.5,50,2,150,2.66,36.54,147.75,147.42,147.75,1.61,0.21,105.93,-69,-20,-220,115,140,-1,0.3,-1,-1,19,-1,120,1,1,0,0,0,0,42.46,1,0,1,
130050,23,0,0,23,1,25,63273,1,1,1,5,0.5,50,2,150,2.55,39.24,147.73,147.41,147.73,0.86,1.22,48.74,-69,-20,-220,115,140,-1,0.4,-1,-1,19,-1,115,1,1,0,0,0,0,42.46,1,0,1,
131050,23,0,0,23,1,23,63273,1,1,1,5,0.5,50,2,150,2.26,41.84,147.7,147.78,147.7,2.28,1.67,50.92,-69,-20,-220,115,140,-1,0.4,-1,-1,19,-1,119,1.1,1,0,0,0,0,42.46,1,0,1,
132050,23,0,0,23,2,28,0,1,1,1,5,0.5,50,2,150,2.99,44.44,147.7,146.85,147.7,1.53,1.19,48.77,-69,-20,-220,115,140,-1,0.5,-1,-1,19,-1,118,1.1,1,0,0,0,0,42.46,1,0,1,
133050,27,0,0,27,1,27,1278,1,1,1,5,0.5,50,2,150,3.69,48.15,147.62,146.33,147.61,1.94,1.12,51.5,-69,-20,-220,115,140,-1,0.5,-1,-1,19,-1,115,1.1,1,0,0,0,0,42.28,1,0,1,
134050,32,0,0,32,1,32,2797,1,1,1,5,0.5,50,2,150,2.84,51.21,147.56,147.23,147.56,1.17,1.21,48.11,-69,-20,-220,115,140,-1,0.5,-1,-1,19,-1,116,1.1,1,0,0,0,0,40.84,1,0,1,
135050,32,0,0,32,1,32,2797,1,1,1,5,0.5,50,2,150,2.58,54.12,147.53,147.44,147.52,2.06,0.95,51.25,-69,-20,-220,115,140,-1,0.5,-1,-1,19,-1,120,1.1,1,0,0,0,0,40.84,1,0,1,
136070,32,0,0,32,1,32,2797,1,1,1,5,0.5,50,2,150,3.73,57.43,147.49,146.32,147.49,1.54,1.69,23.94,-69,-20,-220,115,140,-1,0.5,-1,-1,19,-1,114,1.1,1,0,0,0,0,40.84,1,0,1,
137050,36,0,0,36,1,36,5678,1,1,1,5,0.5,50,2,150,2.96,60.31,147.46,147.07,147.46,1.3,1.22,48.77,-69,-20,-220,115,140,-1,0.6,-1,-1,19,-1,117,1.2,1,0,0,0,0,42.4,1,0,1,
138050,36,0,0,36,1,36,5678,1,1,1,5,0.5,50,2,150,1.18,62.23,147.47,148.78,147.47,1.78,1.38,23.57,-69,-20,-220,115,140,-1,0.6,-1,-1,19,-1,116,1.2,1,0,0,0,0,42.4,1,0,1,
139051,36,0,0,36,1,37,5678,1,1,1,5,0.5,50,2,150,1.7,63.61,147.54,148.31,147.54,1.98,1.22,48.59,-69,-20,-220,115,140,-1,0.6,-1,-1,19,-1,115,1.2,1,0,0,0,0,42.4,1,0,1,
140050,36,0,0,36,1,36,5678,1,1,1,5,0.5,50,2,150,0.89,64.25,147.64,149.07,147.64,1.8,2.2,102.08,-69,-20,-220,115,140,-1,0.6,-1,-1,19,-1,115,1.2,1,0,0,0,0,42.4,1,0,1,
141050,36,0,0,36,1,36,5678,1,1,1,5,0.5,50,2,150,1.6,65.65,147.7,148.36,147.71,1.66,0.64,48.26,-69,-20,-220,115,140,-1,0.6,-1,-1,19,-1,118,1.2,1,0,0,0,0,42.34,1,0,1,
142050,36,0,0,36,1,36,5678,1,1,1,5,0.5,50,2,150,0.37,66.52,147.78,149.68,147.79,2.15,1.97,51.49,-69,-20,-220,115,140,-1,0.6,-1,-1,19,-1,116,1.2,1,0,0,0,0,42.34,1,0,1,
143050,36,0,0,36,1,36,5678,1,1,1,5,0.5,50,2,150,0.58,67,147.9,149.38,147.9,2.47,1.87,48.7,-69,-20,-220,115,140,-1,0.6,-1,-1,19,-1,122,1.2,1,0,0,0,0,42.34,1,0,1,
144050,36,0,0,36,1,36,5678,1,1,1,5,0.5,50,2,150,0.9,67.47,147.99,149.33,147.99,0.76,0.51,49.46,-69,-20,-220,115,140,-1,0.7,-1,-1,19,-1,118,1.2,1,0,0,0,0,42.34,1,0,1,
145050,36,0,0,36,1,32,5678,1,1,1,5,0.5,50,2,150,-0.34,67.29,148.11,150.39,148.12,2.11,1.05,51.45,-69,-20,-220,115,140,-1,0.7,-1,-1,19,-1,117,1.2,1,0,0,0,0,42.34,1,0,1,
146050,36,0,0,36,0,31,0,1,1,1,5,0.5,50,2,150,-1.13,67.01,148.25,151.06,148.26,1.74,1.66,48.89,-69,-20,-220,115,140,-1,0.7,-1,-1,19,-1,118,1.2,1,0,0,0,0,42.34,1,0,1,
147069,32,0,0,32,1,32,15178,1,1,1,5,0.5,50,2,150,-0.49,66.48,148.39,150.63,148.4,2.2,0.9,24.09,-69,-20,-220,115,140,-1,0.7,-1,-1,19,-1,118,1.2,1,0,0,0,0,42.21,1,0,1,
148050,32,0,0,32,0,27,0,1,1,1,5,0.5,50,2,150,-1.47,65.15,148.57,151.33,148.58,1.83,1.87,49.34,-69,-20,-220,115,140,-1,0.7,-1,-1,19,-1,115,1.2,1,0,0,0,0,42.21,1,0,1,
149050,28,0,0,28,1,28,17178,1,1,1,5,0.5,50,2,150,-2.02,63.32,148.76,151.94,148.77,1.51,0.84,23.27,-69,-20,-220,115,140,-1,0.7,-1,-1,19,-1,117,1.2,1,0,0,0,0,42.21,1,0,1,
150050,24,0,0,24,1,24,18778,1,1,1,5,0.5,50,2,150,-2.58,60.74,148.98,152.54,148.99,2.38,2.31,48.87,-69,-20,-220,115,140,-1,0.7,-1,-1,19,-1,115,1.2,1,0,0,0,0,42.21,1,0,1,
151050,24,0,0,24,1,24,18778,1,1,1,5,0.5,50,2,150,-1.78,58.79,149.17,151.96,149.18,1.3,0.92,105.57,-69,-20,-220,115,140,-1,0.8,-1,-1,19,-1,115,1.2,1,0,0,0,0,42.09,1,0,1,
152050,20,0,0,20,1,20,20728,1,1,1,5,0.5,50,2,150,-1.21,57.46,149.32,151.21,149.33,1.54,1.6,51.92,-69,-20,-220,115,140,-1,0.8,-1,-1,19,-1,111,1.1,1,0,0,0,0,42.09,1,0,1,
153050,20,0,0,20,1,20,20728,1,1,1,5,0.5,50,2,150,-1.63,56.07,149.44,151.72,149.45,1.34,0.43,49.41,-69,-20,-220,115,140,-1,0.8,-1,-1,19,-1,114,1.1,1,0,0,0,0,42.09,1,0,1,
154050,20,0,0,20,1,20,20728,1,1,1,5,0.5,50,2,150,-2.03,54.36,149.58,152.03,149.59,2.25,1.75,50.63,-69,-20,-220,115,140,-1,0.8,-1,-1,19,-1,114,1.1,1,0,0,0,0,42.03,1,0,1,
155051,16,0,0,16,1,16,23728,1,1,1,5,0.5,50,2,150,-3.67,50.9,149.8,153.53,149.81,1.76,1.48,48.22,-69,-20,-220,115,140,-1,0.8,-1,-1,19,-1,114,1.1,1,0,0,0,0,42.03,1,0,1,
156050,16,0,0,16,0,10,0,1,1,1,5,0.5,50,2,150,-3.55,47.3,150.03,153.48,150.04,1.24,1.26,50.73,-69,-20,-220,115,140,-1,0.8,-1,-1,19,-1,114,1.1,1,0,0,0,0,42.03,1,0,1,
157050,10,0,0,10,1,10,25278,1,1,1,5,0.5,50,2,150,-2.8,44.33,150.22,152.55,150.23,2.91,2.12,48.63,-69,-20,-220,115,140,-1,0.8,-1,-1,19,-1,113,1.1,1,0,0,0,0,42.03,1,0,1,
158069,10,0,0,10,1,10,25278,1,1,1,5,0.5,50,2,150,-1.86,42.12,150.37,151.82,150.37,1.68,1.96,23.97,-69,-20,-220,115,140,-1,0.8,-1,-1,19,-1,112,1.1,1,0,0,0,0,42.09,1,0,1,
159050,10,0,0,10,1,10,25278,1,1,1,5,0.5,50,2,150,-2.48,39.41,150.49,152.46,150.5,1.72,1.2,49.42,-69,-20,-220,115,140,-1,0.8,-1,-1,19,-1,112,1.2,1,0,0,0,0,42.09,1,0,1,
160050,6,0,0,6,1,6,28728,1,1,1,5,0.5,50,2,150,-1.71,37.02,150.62,151.54,150.62,1.73,1.27,23.72,-69,-20,-220,115,140,-1,0.8,-1,-1,19,-1,112,1.2,1,0,0,0,0,42.09,1,0,1,
161050,6,0,0,6,1,6,28728,1,1,1,5,0.5,50,2,150,-1.89,35.04,150.7,151.79,150.7,1.33,1,52.14,-69,-20,-220,115,140,-1,0.8,-1,-1,19,-1,110,1.2,1,0,0,0,0,42.09,1,0,1,
162050,6,0,0,6,1,6,28728,1,1,1,5,0.5,50,2,150,-0.57,34.17,150.71,150.7,150.71,2.25,1.6,102.42,-69,-20,-220,115,140,-1,0.8,-1,-1,19,-1,111,1.2,1,0,0,0,0,42.03,1,0,1,
163050,6,0,0,6,1,6,28728,1,1,1,5,0.5,50,2,150,-1.9,32.29,150.77,151.85,150.78,1.44,1.53,51.33,-69,-20,-220,115,140,-1,0.8,-1,-1,19,-1,114,1.2,1,0,0,0,0,41.94,1,0,1,
164050,6,0,0,6,1,6,28728,1,1,1,5,0.5,50,2,150,-1.14,30.93,150.81,151.25,150.81,1.62,0.25,49.05,-69,-20,-220,115,140,-1,0.8,-1,-1,19,-1,112,1.2,1,0,0,0,0,41.94,1,0,1,
165050,6,0,0,6,1,4,28728,1,1,1,5,0.5,50,2,150,-2.59,28.38,150.9,152.54,150.91,1.24,1.37,51.25,-69,-20,-220,115,140,-1,0.8,-1,-1,19,-1,110,0.4,1,0,0,0,0,41.94,1,0,1,
166050,6,0,0,6,1,2,28728,1,1,1,5,0.5,50,2,150,-2.35,25.29,151.03,152.59,151.03,2.52,1.12,48.22,-69,-20,-220,115,140,-1,0.8,-1,-1,19,-1,113,0.4,1,0,0,0,0,21.28,1,0,1,
167050,2,0,0,2,1,1,35678,1,1,1,5,0.5,50,2,150,-2.68,22.57,151.14,152.5,151.14,2.24,1.77,51.42,-69,-20,-220,115,140,-1,0.8,-1,-1,19,-1,114,0.4,1,0,0,0,0,41.94,1,0,1,
168050,2,0,0,2,1,2,35678,1,1,1,5,0.5,50,2,150,-3.08,20.14,151.21,153.02,151.22,1.3,1.4,52.19,-69,-20,-220,115,140,-1,0.8,-1,-1,19,-1,112,1.2,1,0,0,0,0,41.94,1,0,1,
169070,2,0,0,2,1,2,35678,1,1,1,5,0.5,50,2,150,-2.36,17.77,151.29,152.36,151.29,1.82,0.97,23.41,-69,-20,-220,115,140,-1,0.8,-1,-1,19,-1,111,1.2,1,0,0,0,0,41.94,1,0,1,
170050,2,0,0,2,1,2,35678,1,1,1,5,0.5,50,2,150,-2.71,15.35,151.35,152.85,151.35,1.32,1.65,52.01,-69,-20,-220,115,140,-1,0.8,-1,-1,19,-1,114,1.2,1,0,0,0,0,41.94,1,0,1,
171057,-2,0,0,-2,1,-2,39728,1,1,1,5,0.5,50,2,150,-2.95,12.15,151.47,153.05,151.48,2.59,1.64,135.94,-69,-20,-220,115,140,-1,0.8,-1,-1,19,-1,114,0.4,1,0,0,0,0,41.88,1,0,1,
172050,-2,0,0,-2,1,-5,39728,1,1,1,5,0.5,50,2,150,-2.66,9.56,151.55,152.5,151.56,1.29,1.21,51.39,-69,-20,-220,115,140,-1,0.8,-1,-1,19,-1,112,0.4,1,0,0,0,0,41.88,1,0,1,
173050,-2,0,0,-2,1,-2,39728,1,1,1,5,0.5,50,2,150,-2.05,7.58,151.59,151.86,151.6,1.7,1.22,102.38,-69,-20,-220,115,140,-1,0.8,-1,-1,19,-1,112,0.4,1,0,0,0,0,41.91,1,0,1,
174050,-2,0,0,-2,1,-2,39728,1,1,1,5,0.5,50,2,150,-1.56,6.4,151.57,151.72,151.57,2.75,1.69,51.83,-69,-20,-220,115,140,-1,0.8,-1,-1,19,-1,117,0.5,1,0,0,0,0,41.91,1,0,1,
175050,-2,0,0,-2,1,-2,39728,1,1,1,5,0.5,50,2,150,-1.87,4.44,151.58,151.79,151.58,1.13,1,48.62,-69,-20,-220,115,140,-1,0.8,-1,-1,19,-1,112,0.5,1,0,0,0,0,41.76,1,0,1,
176050,-2,0,0,-2,1,-2,39728,1,1,1,5,0.5,50,2,150,-2.86,2.04,151.6,153.18,151.6,1.33,0.1,49.41,-69,-20,-220,115,140,-1,0.9,-1,-1,19,-1,111,0.5,1,0,0,0,0,41.76,1,0,1,
177050,-12,0,0,-12,1,-22,45928,1,1,1,5,0.5,50,2,130,-22.14,-20.14,151.63,152.36,151.64,1.58,1.59,51.35,-69,-20,-220,115,140,-1,0.9,-1,-1,19,-1,112,0.5,1,0,0,0,0,19.72,1,0,1,
178050,-31,0,0,-31,1,-41,46797,1,1,1,5,0.5,50,2,130,-23.41,-43,151.68,153.53,151.69,2.21,1.43,48.69,-69,-20,-220,115,140,-1,0.9,-1,-1,19,-1,113,0.5,1,0,0,0,0,41.91,1,0,1,
179050,-48,0,0,-48,0,-59,0,1,1,1,5,0.5,50,2,130,-23.15,-65.68,151.76,153.33,151.76,2.32,-0.22,51.26,-69,-20,-220,115,140,-1,0.9,-1,-1,19,-1,104,0.5,1,0,0,0,0,41.91,1,0,1,
180070,-67,0,0,-67,0,-75,0,1,1,1,5,0.5,50,2,130,-21.15,-87.7,151.81,150.77,151.81,1.34,3.73,23.5,-69,-20,-220,115,140,-1,0.9,-1,-1,19,-1,113,0.5,1,0,0,0,0,41.91,1,0,1,
181050,-79,0,0,-79,0,-87,0,1,1,1,5,0.5,50,2,130,-20.54,-108.05,151.72,150.79,151.71,4.5,-2,51.33,-69,-20,-220,115,140,-1,0.9,-1,-1,19,-1,95,0.7,1,0,0,0,0,41.91,1,0,1,
182056,-93,0,0,-93,0,-101,0,1,1,1,5,0.5,50,2,130,-21.23,-129.42,151.67,151.11,151.67,-0.16,3.04,136.46,-69,-20,-220,115,140,-1,0.8,-1,-1,19,-1,111,0.7,1,0,0,0,0,41.91,1,0,1,
183050,-106,0,0,-106,0,-113,0,1,1,1,5,0.5,50,2,130,-21.1,-150.09,151.61,151.13,151.61,3.35,-0.21,51.28,-69,-20,-220,115,140,-1,0.8,-1,-1,19,-1,100,0.7,1,0,0,0,0,41.91,1,0,1,
184050,-118,0,0,-118,0,-125,0,1,1,1,5,0.5,50,2,130,-20.44,-170.55,151.56,150.26,151.56,0.82,1.35,104.95,-69,-20,-220,115,140,-1,0.8,-1,-1,19,-1,105,0.7,1,0,0,0,0,41.91,1,0,1,
185050,-125,0,0,-125,0,-133,0,1,1,1,5,0.5,50,2,130,-17.31,-188.53,151.39,147.23,151.37,1.55,1.74,48.31,-69,-20,-220,115,140,-1,0.7,-1,-1,19,-1,115,0.7,1,0,0,0,0,41.67,1,0,1,
186050,-134,0,0,-134,1,-138,54878,1,1,1,5,0.5,50,2,130,-15.63,-204.37,151.07,145.67,151.05,2.37,0.67,51.38,-69,-20,-220,115,140,-1,0.7,-1,-1,19,-1,111,1.2,1,0,0,0,0,41.7,1,0,1,
187051,-138,0,0,-138,0,-141,0,1,1,1,5,0.5,50,2,130,-13.77,-218.34,150.68,143.73,150.66,1.5,1.72,48.29,-69,-20,-220,115,140,-1,0.7,-1,-1,19,-1,111,1.2,1,0,0,0,0,41.7,1,0,1,
188050,-140,0,0,-140,1,-140,56078,1,1,1,5,0.5,50,2,130,-13.47,-232.18,150.26,143.39,150.24,1.02,1.09,51.46,-69,-20,-220,115,140,-1,0.5,-1,-1,19,-1,118,1.2,1,0,0,0,0,41.7,1,0,1,
189050,-145,0,0,-145,1,-147,57878,1,1,1,5,0.5,50,2,130,-12.89,-244.89,149.82,142.78,149.79,1.92,0.3,48.25,-69,-20,-220,115,140,-1,0.5,-1,-1,19,-1,111,1.1,1,0,0,0,0,41.7,1,0,1,
190050,-145,0,0,-145,0,-150,0,1,1,1,5,0.5,50,2,130,-11.64,-256.87,149.35,141.51,149.33,0.97,1.59,52.14,-69,-20,-220,115,140,-1,0.5,-1,-1,19,-1,117,1.1,1,0,0,0,0,41.76,1,0,1,
191070,-149,0,0,-149,1,-149,59278,1,1,1,5,0.5,50,2,130,-10.27,-267.51,148.84,140.19,148.81,2.08,1.55,23.52,-69,-20,-220,115,140,-1,0.5,-1,-1,19,-1,117,1.1,1,0,0,0,0,41.76,1,0,1,
192050,-149,0,0,-149,1,-149,59278,1,1,1,5,0.5,50,2,130,-9.09,-277.09,148.31,138.94,148.27,2.11,0.92,48.3,-69,-20,-220,115,140,-1,0.5,-1,-1,19,-1,118,0.8,1,0,0,0,0,41.76,1,0,1,
193057,-149,0,0,-149,1,-149,59278,1,1,1,5,0.5,50,2,130,-7.82,-285.15,147.7,137.81,147.65,0.32,1.07,136.31,-69,-20,-220,115,140,-1,0.4,-1,-1,19,-1,122,0.8,1,0,0,0,0,41.76,1,0,1,
194050,-149,0,0,-149,1,-149,59278,1,1,1,5,0.5,50,2,130,-6.88,-292.13,147.05,136.81,147.03,1.76,1.21,49.32,-69,-20,-220,115,140,-1,0.4,-1,-1,19,-1,125,0.8,1,0,0,0,0,41.76,1,0,1,
195050,-149,0,0,-149,1,-149,59278,1,1,1,5,0.5,50,2,130,-5.71,-297.99,146.4,135.55,146.36,2.13,0.72,105.4,-69,-20,-220,115,140,-1,0.4,-1,-1,19,-1,123,0.8,1,0,0,0,0,41.76,1,0,1,
196050,-149,0,0,-149,1,-149,59278,1,1,1,5,0.5,50,2,130,-3.75,-302.24,145.69,133.63,145.64,0.87,1.45,48.97,-69,-20,-220,115,140,-1,0.3,-1,-1,19,-1,127,0.7,1,0,0,0,0,41.64,1,0,1,
197050,-149,0,0,-149,2,-144,0,1,1,1,5,0.5,50,2,130,-2.74,-305.31,144.91,132.69,144.89,1.81,1.29,51.46,-69,-20,-220,115,140,-1,0.3,-1,-1,19,-1,131,0.7,1,0,0,0,0,41.64,1,0,1,
198050,-144,0,0,-144,1,-144,622,1,1,1,5,0.5,50,2,130,-1.91,-307.47,144.15,131.83,144.12,0.7,0.08,49.35,-69,-20,-220,115,140,-1,0.2,-1,-1,19,-1,129,0.7,1,0,0,0,0,41.76,1,0,1,
199050,-140,0,0,-140,1,-140,2242,1,1,1,5,0.5,50,2,130,-0.54,-308.26,143.36,130.43,143.32,1.34,1.5,50.76,-69,-20,-220,115,140,-1,0.2,-1,-1,19,-1,135,0.7,1,0,0,0,0,41.76,1,0,1,
200050,-136,0,0,-136,2,-131,0,1,1,1,5,0.5,50,2,130,2.14,-306.76,142.5,127.8,142.45,1.16,0.47,51.41,-69,-20,-220,115,140,-1,0.2,-1,-1,19,-1,135,0.7,1,0,0,0,0,41.76,1,0,1,
201050,-128,0,0,-128,2,-123,0,1,1,1,5,0.5,50,2,130,3.76,-303.31,141.54,126.15,141.5,1.68,1.46,48.23,-69,-20,-220,115,140,-1,0.2,-1,-1,19,-1,137,0.7,1,0,0,0,0,41.67,1,0,1,
202070,-124,0,0,-124,2,-116,0,1,1,1,5,0.5,50,2,130,4.61,-298.85,140.58,125.32,140.52,1,0.93,23.9,-69,-20,-220,115,140,-1,0.2,-1,-1,19,-1,138,1,1,0,0,0,0,41.67,1,0,1,
203051,-112,0,0,-112,2,-107,0,1,1,1,5,0.5,50,2,130,7.29,-292.33,139.6,122.51,139.53,1.31,1.12,48.82,-69,-20,-220,115,140,-1,0.2,-1,-1,19,-1,137,1,1,0,0,0,0,41.73,1,0,1,
204055,-102,0,0,-102,2,-96,0,1,1,1,5,0.5,50,2,130,8.63,-283.91,138.5,121.3,138.44,1.62,0.87,147.06,-69,-20,-220,115,140,-1,0.1,-1,-1,19,-1,138,1,1,0,0,0,0,41.73,1,0,1,
205050,-92,0,0,-92,2,-86,0,1,1,1,5,0.5,50,2,130,9.75,-274.46,137.44,120.2,137.37,0.55,1.67,49.44,-69,-20,-220,115,140,-1,0.1,-1,-1,19,-1,142,1,1,0,0,0,0,41.73,1,0,1,
206050,-81,0,0,-81,2,-76,0,1,1,1,5,0.5,50,2,130,10.22,-264.26,136.37,119.75,136.31,1.48,0.51,94.77,-69,-20,-220,115,140,-1,0.1,-1,-1,19,-1,142,0.4,1,0,0,0,0,41.7,1,0,1,
207050,-72,0,0,-72,1,-66,10342,1,1,1,5,0.5,50,2,130,12,-252.78,135.29,117.92,135.25,0.67,0.16,49.46,-69,-20,-220,115,140,-1,0.1,-1,-1,19,-1,133,0.4,1,0,0,0,0,41.7,1,0,1,
208050,-61,0,0,-61,2,-55,0,1,1,1,5,0.5,50,2,130,12.39,-240.2,134.21,117.61,134.17,0.58,2.73,48.89,-69,-20,-220,115,140,-1,0.1,-1,-1,19,-1,143,0.4,1,0,0,0,0,41.7,1,0,1,
209050,-52,0,0,-52,1,-45,12142,1,1,1,5,0.5,50,2,130,14.44,-226.58,133.17,115.45,133.1,2.8,-0.27,51.42,-69,-20,-220,115,140,-1,0.1,-1,-1,19,-1,136,0.4,1,0,0,0,0,41.67,1,0,1,
210050,-40,0,0,-40,2,-32,0,1,1,1,5,0.5,50,2,130,16.63,-210.52,132.01,113.3,131.95,-0.15,2.52,48.82,-69,-20,-220,115,140,-1,0.1,-1,-1,19,-1,131,1,1,0,0,0,0,21.28,1,0,1,
211050,-27,0,0,-27,2,-19,0,1,1,1,5,0.5,50,2,130,17.45,-193.51,130.88,112.36,130.81,2.2,1.33,51.4,-69,-20,-220,115,140,-1,0,-1,-1,19,-1,138,1,1,0,0,0,0,15.24,1,0,1,
212050,-12,0,0,-12,2,-5,0,1,1,1,5,0.5,50,2,130,19.71,-174.31,129.69,110.26,129.61,1.69,1.16,48.83,-69,-20,-220,115,140,-1,0,-1,-1,19,-1,132,1,1,0,0,0,0,15.24,1,0,1,
213068,2,0,0,2,2,8,0,1,1,1,5,0.5,50,2,130,19.86,-154.57,128.51,109.98,128.41,0.5,1.33,24.13,-69,-20,-220,115,140,-1,0,-1,-1,19,-1,132,0.4,1,0,0,0,0,41.67,1,0,1,
214050,16,0,0,16,1,23,17348,1,1,1,5,0.5,50,2,130,21.41,-133.51,127.33,108.51,127.26,2.08,1.61,48.8,-69,-20,-220,115,140,-1,0,-1,-1,19,-1,138,0.4,1,0,0,0,0,41.67,1,0,1,
215055,29,0,0,29,2,38,0,1,1,1,5,0.5,50,2,130,22.5,-111.19,126.13,107.38,126.07,-0.02,-0.26,147.58,-69,-20,-220,115,140,-1,0,-1,-1,19,-1,138,0.4,1,0,0,0,0,21.28,1,0,1,
216050,45,0,0,45,2,52,0,1,1,1,5,0.5,50,2,130,21.95,-89.12,125.01,108.08,124.96,0.59,2.4,52.14,-69,-20,-220,115,140,-1,0,-1,-1,19,-1,140,0.4,1,0,0,0,0,13.72,1,0,1,
217050,57,0,0,57,1,65,20342,1,1,1,5,0.5,50,2,130,22.12,-66.61,123.95,107.83,123.93,1.88,0.7,92.76,-69,-20,-220,115,140,-1,0,-1,-1,19,-1,144,0.4,1,0,0,0,0,13.72,1,0,1,
218050,70,0,0,70,1,77,21301,1,1,1,5,0.5,50,2,130,23.15,-44.29,122.97,106.8,122.91,0.84,0.98,51.37,-69,-20,-220,115,140,-1,0,-1,-1,19,-1,137,0.4,1,0,0,0,0,13.72,1,0,1,
219051,83,0,0,83,2,89,0,1,1,1,5,0.5,50,2,130,22.84,-21.17,121.98,107.21,121.95,-0.13,1.56,48.63,-69,-20,-220,115,140,-1,0,-1,-1,19,-1,141,0.4,1,0,0,0,0,21.24,1,0,1,
220050,94,0,0,94,1,101,23242,1,1,1,5,0.5,50,2,130,23.11,1.56,121.1,106.93,121.04,1.67,0.69,51.39,-69,-20,-220,115,140,-1,0,-1,-1,19,-1,141,0.4,1,0,0,0,0,21.24,1,0,1,
221050,105,0,0,105,2,112,0,1,1,1,5,0.5,50,2,130,22.35,24.23,120.24,107.75,120.2,-0.38,0.74,48.27,-69,-20,-220,115,140,-1,0,-1,-1,19,-1,139,0.8,1,0,0,0,0,21.24,1,0,1,
222050,115,0,0,115,2,120,0,1,1,1,5,0.5,50,2,130,20.36,45.13,119.53,109.68,119.51,1.23,1.8,51.41,-69,-20,-220,115,140,-1,0,-1,-1,19,-1,141,0.8,1,0,0,0,0,41.67,1,0,1,
223050,119,0,0,119,1,126,25643,1,1,1,5,0.5,50,2,130,19.53,64.97,118.96,110.63,118.93,0.23,0.21,49.14,-69,-20,-220,115,140,-1,0,-1,-1,19,-1,137,0.8,1,0,0,0,0,19.72,1,0,1,
224070,125,0,0,125,2,130,0,1,1,1,5,0.5,50,2,130,17.83,83.16,118.5,112.28,118.47,0.29,1.07,23.09,-69,-20,-220,115,140,-1,0,-1,-1,19,-1,134,0.8,1,0,0,0,0,41.73,1,0,1,
225050,129,0,0,129,1,129,27642,1,1,1,5,0.5,50,2,130,16.02,99.76,118.16,114.2,118.15,0.78,1.01,51.48,-69,-20,-220,115,140,-1,0,-1,-1,19,-1,141,0.9,1,0,0,0,0,41.73,1,0,1,
226050,129,0,0,129,1,129,27642,1,1,1,5,0.5,50,2,130,13.83,114.11,117.98,116.19,117.97,0.74,0.78,24.19,-69,-20,-220,115,140,-1,0,-1,-1,19,-1,137,0.9,1,0,0,0,0,41.73,1,0,1,
227050,129,0,0,129,1,129,27642,1,1,1,5,0.5,50,2,130,12.71,127.16,117.9,117.4,117.9,1.23,0.78,52.06,-69,-20,-220,115,140,-1,0,-1,-1,19,-1,137,0.9,1,0,0,0,0,19.75,1,0,1,
228050,129,0,0,129,1,129,27642,1,1,1,5,0.5,50,2,130,9.76,138.13,117.92,120.42,117.93,-0.7,1.09,102.8,-69,-20,-220,115,140,-1,0,-1,-1,19,-1,138,0.9,1,0,0,0,0,19.75,1,0,1,
229050,129,0,0,129,1,129,27642,1,1,1,5,0.5,50,2,130,7.38,146,118.15,122.71,118.17,1.29,-0.33,50.73,-69,-20,-220,115,140,-1,0,-1,-1,19,-1,138,1,1,0,0,0,0,19.75,1,0,1,
230050,123,0,0,123,1,119,33342,1,1,1,5,0.5,50,2,130,5.77,152.45,118.47,124.29,118.49,1.63,2.28,48.95,-69,-20,-220,115,140,-1,0,-1,-1,19,-1,130,1,1,0,0,0,0,19.75,1,0,1,
231050,117,0,0,117,1,117,34292,1,1,1,5,0.5,50,2,130,4.77,157.44,118.85,125.22,118.87,1.4,1.36,51.98,-69,-20,-220,115,140,-1,0,-1,-1,19,-1,135,1,1,0,0,0,0,19.75,1,0,1,
232050,110,0,0,110,1,110,35243,1,1,1,5,0.5,50,2,130,3.7,161.42,119.27,126.4,119.3,0.62,0.06,51.53,-69,-20,-220,115,140,-1,0,-1,-1,19,-1,130,0.4,1,0,0,0,0,41.64,1,0,1,
233050,105,0,0,105,0,100,0,1,1,1,5,0.5,50,2,130,1.87,163.8,119.76,128.23,119.78,1.29,1.22,48.11,-69,-20,-220,115,140,-1,0,-1,-1,19,-1,132,0.4,1,0,0,0,0,0,1,0,1,
234050,100,0,0,100,1,93,36599,1,1,1,5,0.5,50,2,130,0.79,164.87,120.29,129.2,120.32,1.92,1.53,52.06,-69,-20,-220,115,140,-1,0,-1,-1,19,-1,134,0.4,1,0,0,0,0,41.64,1,0,1,
235070,93,0,0,93,0,87,0,1,1,1,5,0.5,50,2,130,-0.16,164.99,120.87,130.26,120.9,0.96,0.07,23.55,-69,-20,-220,115,140,-1,0,-1,-1,19,-1,134,0.7,1,0,0,0,0,41.64,1,0,1,
236050,84,0,0,84,1,80,39292,1,1,1,5,0.5,50,2,130,-0.66,164.37,121.44,130.76,121.48,0.64,2.57,50.73,-69,-20,-220,115,140,-1,0,-1,-1,19,-1,129,0.7,1,0,0,0,0,19.75,1,0,1,
237057,78,0,0,78,1,78,40242,1,1,1,5,0.5,50,2,130,-2.12,162.61,122.05,132.01,122.09,2.25,0.05,135.8,-69,-20,-220,115,140,-1,0,-1,-1,19,-1,133,0.7,1,0,0,0,0,19.75,1,0,1,
238050,72,0,0,72,1,72,41292,1,1,1,5,0.5,50,2,130,-2.2,160.71,122.64,132.2,122.67,0.92,2.01,51.39,-69,-20,-220,115,140,-1,0,-1,-1,19,-1,123,1,1,0,0,0,0,41.79,1,0,1,
239050,65,0,0,65,1,65,42292,1,1,1,5,0.5,50,2,130,-3.76,157.36,123.26,133.8,123.3,1.71,0.62,105,-69,-20,-220,115,140,-1,0,-1,-1,19,-1,131,1,1,0,0,0,0,41.79,1,0,1,
240050,58,0,0,58,1,58,43342,1,1,1,5,0.5,50,2,130,-3.85,153.47,123.9,133.96,123.94,1.22,1.2,48.84,-69,-20,-220,115,140,-1,0,-1,-1,19,-1,125,1,1,0,0,0,0,41.79,1,0,1,
241050,53,0,0,53,0,48,0,1,1,1,5,0.5,50,2,130,-5.58,148.24,124.58,135.57,124.6,1.35,1.1,51.16,-69,-20,-220,115,140,-1,0,-1,-1,19,-1,129,0.4,1,0,0,0,0,15.24,1,0,1,
242050,48,0,0,48,0,42,0,1,1,1,5,0.5,50,2,130,-5.35,142.8,125.23,135.39,125.27,1.44,1.19,48.76,-69,-20,-220,115,140,-1,0,-1,-1,19,-1,129,0.4,1,0,0,0,0,15.24,1,0,1,
243050,43,0,0,43,0,36,0,1,1,1,5,0.5,50,2,130,-5.62,137.11,125.87,135.59,125.9,1.93,1.44,52.03,-69,-20,-220,115,140,-1,0,-1,-1,19,-1,130,0.4,1,0,0,0,0,41.7,1,0,1,
244050,37,0,0,37,0,31,0,1,1,1,5,0.5,50,2,130,-5.88,131.15,126.48,135.81,126.51,1.69,1.02,48.17,-69,-20,-220,115,140,-1,0,-1,-1,19,-1,128,0.4,1,0,0,0,0,41.7,1,0,1,
245050,27,0,0,27,0,20,0,1,1,1,5,0.5,100,2,130,-7.16,124.39,127.08,137.34,127.11,0.99,1.17,51.36,-69,-20,-220,115,140,-1,0,-1,-1,19,-1,128,0.4,1,0,0,0,0,41.7,1,0,1,
246070,15,0,0,15,0,10,0,1,1,1,5,0.5,100,2,130,-6.74,117.23,127.72,136.81,127.75,2.96,1.67,23.25,-69,-20,-220,115,140,-1,0,-1,-1,19,-1,131,0.4,1,0,0,0,0,41.76,1,0,1,
247050,6,0,0,6,1,3,50142,1,1,1,5,0.5,100,2,130,-6.85,110.27,128.28,136.86,128.3,1.08,1.05,50.78,-69,-20,-220,115,140,-1,0,-1,-1,19,-1,129,0.5,1,0,0,0,0,41.76,1,0,1,
248057,-1,0,0,-1,1,-1,51292,1,1,1,5,0.5,100,2,130,-7.04,103.45,128.78,136.99,128.82,1.06,0.86,135.28,-69,-20,-220,115,140,-1,0,-1,-1,19,-1,127,0.5,1,0,0,0,0,41.76,1,0,1,
249050,-1,0,0,-1,0,-8,0,1,1,1,5,0.5,100,2,130,-7.78,96.04,129.3,137.88,129.32,1.62,0.46,48.89,-69,-20,-220,115,140,-1,0,-1,-1,19,-1,128,0.5,1,0,0,0,0,41.76,1,0,1,
250050,-8,0,0,-8,0,-16,0,1,1,1,5,0.5,100,2,130,-8.13,87.58,129.85,138.11,129.86,0.99,1.75,102.59,-69,-20,-220,115,140,-1,0,-1,-1,19,-1,127,0.6,1,0,0,0,0,41.76,1,0,1,
251051,-15,0,0,-15,1,-21,53792,1,1,1,5,0.5,100,2,130,-8.12,79.76,130.34,138.14,130.36,1.62,0.72,49.45,-69,-20,-220,115,140,-1,0,-1,-1,19,-1,130,0.6,1,0,0,0,0,41.76,1,0,1,
252050,-21,0,0,-21,1,-28,54742,1,1,1,5,0.5,100,2,130,-9.83,70.34,130.87,139.68,130.89,1.42,1.14,51.77,-69,-20,-220,115,140,-1,0,-1,-1,19,-1,126,0.6,1,0,0,0,0,41.76,1,0,1,
253050,-32,0,0,-32,1,-32,56092,1,1,1,5,0.5,100,2,130,-8.95,60.97,131.4,138.82,131.42,1.89,1.85,48.89,-69,-20,-220,115,140,-1,0,-1,-1,19,-1,128,0.6,1,0,0,0,0,41.76,1,0,1,
254050,-36,0,0,-36,1,-36,57161,1,1,1,5,0.5,100,2,130,-7.73,52.98,131.82,137.73,131.84,2.04,1.45,51.31,-69,-20,-220,115,140,-1,0,-1,-1,19,-1,131,0.6,1,0,0,0,0,16.7,1,0,1,
255050,-36,0,0,-36,1,-36,57161,1,1,1,5,0.5,100,2,130,-7.25,45.37,132.19,137.13,132.2,2.17,1.26,49.45,-69,-20,-220,115,140,-1,0,-1,-1,19,-1,131,0.6,1,0,0,0,0,41.67,1,0,1,
256050,-40,0,0,-40,1,-40,59199,1,1,1,5,0.5,100,2,130,-7.81,37.44,132.53,137.84,132.55,1.16,1.41,48.8,-69,-20,-220,115,140,-1,0,-1,-1,19,-1,130,0.7,1,0,0,0,0,41.67,1,0,1,
257070,-40,0,0,-40,0,-45,0,1,1,1,5,0.5,100,2,130,-8.04,29.41,132.85,138.02,132.88,1.64,0.33,24.1,-69,-20,-220,115,140,-1,0,-1,-1,19,-1,130,0.7,1,0,0,0,0,41.67,1,0,1,
258050,-44,0,0,-44,1,-44,60692,1,1,1,5,0.5,100,2,130,-6.95,22.18,133.14,136.98,133.15,1.5,0.79,49.4,-69,-20,-220,115,140,-1,0,-1,-1,19,-1,130,0.7,1,0,0,0,0,41.64,1,0,1,
259050,-44,0,0,-44,1,-44,60692,1,1,1,5,0.5,100,2,130,-6.77,15.43,133.36,136.8,133.37,1.31,1.82,23.71,-69,-20,-220,115,140,-1,0,-1,-1,19,-1,130,0.7,1,0,0,0,0,41.64,1,0,1,
260050,-44,0,0,-44,1,-44,60692,1,1,1,5,0.5,100,2,130,-6.5,8.77,133.56,136.62,133.57,1.75,0.35,49.3,-69,-20,-220,115,140,-1,0,-1,-1,19,-1,132,0.7,1,0,0,0,0,41.64,1,0,1,
261050,-44,0,0,-44,1,-44,60692,1,1,1,5,0.5,100,2,130,-5.77,2.44,133.74,135.77,133.74,0.7,0.39,102.67,-69,-20,-220,115,140,-1,0,-1,-1,19,-1,129,0.7,1,0,0,0,0,41.64,1,0,1,
262050,-44,0,0,-44,1,-44,60692,1,1,1,5,0.5,100,2,130,-4.73,-2.42,133.83,134.64,133.83,1.37,2.35,48.85,-69,-20,-220,115,140,-1,0,-1,-1,19,-1,130,0.7,1,0,0,0,0,41.64,1,0,1,
263050,-44,0,0,-44,1,-44,60692,1,1,1,5,0.5,100,2,130,-4.24,-6.97,133.88,134.14,133.89,2.48,0.36,50.83,-69,-20,-220,115,140,-1,0,-1,-1,19,-1,126,0.7,1,0,0,0,0,41.64,1,0,1,
264050,-39,0,0,-39,1,-39,1606,1,1,1,5,0.5,100,2,130,-4.18,-10.77,133.88,134.15,133.88,0.57,1.58,51.45,-69,-20,-220,115,140,-1,0,-1,-1,19,-1,129,0.7,1,0,0,0,0,22.77,1,0,1,
265050,-39,0,0,-39,1,-36,1606,1,1,1,5,0.5,100,2,130,-3.62,-14.72,133.9,133.78,133.89,1.68,1.11,48.73,-69,-20,-220,115,140,-1,0,-1,-1,19,-1,129,0.8,1,0,0,0,0,22.77,1,0,1,
266050,-39,0,0,-39,1,-34,1606,1,1,1,5,0.5,100,2,130,-3.66,-18.4,133.89,133.61,133.89,1.37,0.69,51.37,-69,-20,-220,115,140,-1,0,-1,-1,19,-1,126,0.8,1,0,0,0,0,22.77,1,0,1,
267051,-35,0,0,-35,1,-35,4166,1,1,1,5,0.5,100,2,130,-3.08,-21.68,133.85,133.09,133.85,0.64,1.31,48.89,-69,-20,-220,115,140,-1,0,-1,-1,19,-1,131,0.8,1,0,0,0,0,22.77,1,0,1,
268069,-35,0,0,-35,1,-35,4166,1,1,1,5,0.5,100,2,130,-4.34,-25.72,133.84,134.29,133.84,1.8,0.87,23.79,-69,-20,-220,115,140,-1,0,-1,-1,19,-1,131,0.7,1,0,0,0,0,22.77,1,0,1,
269050,-35,0,0,-35,1,-35,4166,1,1,1,5,0.5,100,2,130,-3.57,-29.65,133.86,133.36,133.85,1.69,0.59,48.69,-69,-20,-220,115,140,-1,0,-1,-1,19,-1,127,0.7,1,0,0,0,0,41.61,1,0,1,
270057,-35,0,0,-35,1,-35,4166,1,1,1,5,0.5,100,2,130,-3.45,-33.04,133.83,133.48,133.83,1.26,1.92,136.39,-69,-20,-220,115,140,-1,0,-1,-1,19,-1,127,0.7,1,0,0,0,0,41.61,1,0,1,
271050,-35,0,0,-35,1,-30,4166,1,1,1,5,0.5,100,2,130,-2.51,-35.81,133.79,132.31,133.78,2.11,1.3,49.41,-69,-20,-220,115,140,-1,0,-1,-1,19,-1,130,0.6,1,0,0,0,0,41.61,1,0,1,
272050,-31,0,0,-31,1,-31,9156,1,1,1,5,0.5,100,2,130,-0.65,-36.87,133.65,130.83,133.63,0.99,1.23,92.73,-69,-20,-220,115,140,-1,0,-1,-1,19,-1,130,0.6,1,0,0,0,0,41.61,1,0,1,
273050,-25,0,0,-25,1,-25,10765,1,1,1,5,0.5,100,2,130,-0.4,-37.36,133.46,130.4,133.45,0.99,0.67,51.37,-69,-20,-220,115,140,-1,0,-1,-1,19,-1,130,0.6,1,0,0,0,0,41.61,1,0,1,
274050,-20,0,0,-20,1,-19,11656,1,1,1,5,0.5,100,2,130,-0.25,-37.68,133.27,130.31,133.26,1.65,0.87,48.82,-69,-20,-220,115,140,-1,0,-1,-1,19,-1,134,0.5,1,0,0,0,0,41.61,1,0,1,
275050,-20,0,0,-20,2,-15,0,1,1,1,5,0.5,100,2,130,0.08,-37.66,133.08,129.97,133.06,0.66,0.38,51.31,-69,-20,-220,115,140,-1,0.1,-1,-1,19,-1,133,0.5,1,0,0,0,0,9.2,1,0,1,
276050,-16,0,0,-16,1,-12,13106,1,1,1,5,0.5,100,2,130,0.63,-37.29,132.89,129.33,132.87,1.6,2.06,48.71,-69,-20,-220,115,140,-1,0.1,-1,-1,19,-1,133,0.5,1,0,0,0,0,9.2,1,0,1,
277050,-9,0,0,-9,1,-8,14725,1,1,1,5,0.5,100,2,130,1.79,-35.79,132.64,128.13,132.62,1.33,0.46,50.3,-69,-20,-220,115,140,-1,0.2,-1,-1,19,-1,133,1.1,1,0,0,0,0,41.51,1,0,1,
278050,-9,0,0,-9,2,-3,0,1,1,1,5,0.5,100,2,130,2.25,-33.88,132.38,127.7,132.36,1.53,1.56,48.9,-69,-20,-220,115,140,-1,0.2,-1,-1,19,-1,133,1.1,1,0,0,0,0,41.51,1,0,1,
279069,-4,0,0,-4,2,1,0,1,1,1,5,0.5,100,2,130,2.59,-31.24,132.07,127.55,132.05,0.64,1.19,24.06,-69,-20,-220,115,140,-1,0.2,-1,-1,19,-1,137,1.1,1,0,0,0,0,21.28,1,0,1,
280050,2,0,0,2,1,2,17106,1,1,1,5,0.5,100,2,130,3.11,-28.3,131.78,126.81,131.77,1.89,0.54,50.76,-69,-20,-220,115,140,-1,0.2,-1,-1,19,-1,136,1,1,0,0,0,0,21.28,1,0,1,
281050,8,0,0,8,2,18,0,1,1,1,5,0.5,100,2,150,23.31,-14.78,131.47,126.68,131.45,0.76,0.72,23.99,-69,-20,-220,115,140,-1,0.2,-1,-1,19,-1,135,1,1,0,0,0,0,21.28,1,0,1,
282050,28,0,0,28,1,38,19806,1,1,1,5,0.5,100,2,150,21.75,7.45,131.22,128.2,131.21,1.31,1.81,51.39,-69,-20,-220,115,140,-1,0.4,-1,-1,19,-1,135,1,1,0,0,0,0,21.28,1,0,1,
283051,46,0,0,46,2,57,0,1,1,1,5,0.5,100,2,150,23.02,30.35,130.99,127.09,130.98,1.19,-0.13,94.95,-69,-20,-220,115,140,-1,0.4,-1,-1,19,-1,133,1,1,0,0,0,0,21.28,1,0,1,
284050,65,0,0,65,2,75,0,1,1,1,5,0.5,100,2,150,23.47,53.77,130.73,126.59,130.72,1,1.28,50.77,-69,-20,-220,115,140,-1,0.5,-1,-1,19,-1,134,1,1,0,0,0,0,13.72,1,0,1,
285050,83,0,0,83,2,92,0,1,1,1,5,0.5,100,2,150,22.6,76.84,130.49,127.39,130.49,1.35,1.35,49.3,-69,-20,-220,115,140,-1,0.5,-1,-1,19,-1,136,1,1,0,0,0,0,41.42,1,0,1,
286050,99,0,0,99,2,107,0,1,1,1,5,0.5,100,2,150,22.71,99.54,130.29,127.28,130.28,1.36,0.09,50.75,-69,-20,-220,115,140,-1,0.6,-1,-1,19,-1,130,1,1,0,0,0,0,41.42,1,0,1,
287050,113,0,0,113,2,121,0,1,1,1,5,0.5,100,2,150,22.2,121.93,130.12,127.85,130.12,0.95,1.83,48.89,-69,-20,-220,115,140,-1,0.6,-1,-1,19,-1,132,0.9,1,0,0,0,0,41.45,1,0,1,
288050,127,0,0,127,1,127,25662,1,1,1,5,0.5,100,2,150,20.91,143.12,130.03,129.1,130.02,1.67,1.35,48.24,-69,-20,-220,115,140,-1,0.6,-1,-1,19,-1,134,0.9,1,0,0,0,0,33.28,1,0,1,
289050,135,0,0,135,2,141,0,1,1,1,5,0.5,100,2,150,20.78,163.98,129.97,129.26,129.97,1.6,0.68,51.45,-69,-20,-220,115,140,-1,0.6,-1,-1,19,-1,131,0.9,1,0,0,0,0,16.76,1,0,1,
290069,142,0,0,142,2,148,0,1,1,1,5,0.5,100,2,150,18.54,183.08,129.99,131.59,130,1.03,1.58,23.56,-69,-20,-220,115,140,-1,0.6,-1,-1,19,-1,133,1,1,0,0,0,0,41.48,1,0,1,
291050,147,0,0,147,1,147,28206,1,1,1,5,0.5,100,2,150,16.8,200.27,130.13,133.32,130.15,1.66,0.68,51.47,-69,-20,-220,115,140,-1,0.6,-1,-1,19,-1,130,1,1,0,0,0,0,41.48,1,0,1,
292056,152,0,0,152,1,152,29656,1,1,1,5,0.5,100,2,150,15.38,216.03,130.38,134.66,130.39,1.26,1.31,145.77,-69,-20,-220,115,140,-1,0.6,-1,-1,19,-1,129,1,1,0,0,0,0,41.48,1,0,1,
293050,152,0,0,152,1,152,29656,1,1,1,5,0.5,100,2,150,12.44,229.67,130.68,138.02,130.7,1.36,1.01,52.03,-69,-20,-220,115,140,-1,0.6,-1,-1,19,-1,131,1.2,1,0,0,0,0,22.65,1,0,1,
294050,152,0,0,152,0,147,0,1,1,1,5,0.5,100,2,150,11.26,241.41,131.17,138.76,131.18,1.21,0.17,102.46,-69,-20,-220,115,140,-1,0.6,-1,-1,19,-1,127,1.2,1,0,0,0,0,22.65,1,0,1,
295050,148,0,0,148,0,143,0,1,1,1,5,0.5,100,2,150,9.22,250.97,131.68,140.86,131.71,2.04,1.85,50.84,-69,-20,-220,115,140,-1,0.7,-1,-1,19,-1,127,1.2,1,0,0,0,0,22.65,1,0,1,
296050,144,0,0,144,0,136,0,1,1,1,5,0.5,100,2,150,6.53,258.41,132.32,143.51,132.34,1.83,1.53,51.19,-69,-20,-220,115,140,-1,0.7,-1,-1,19,-1,130,0.5,1,0,0,0,0,41.42,1,0,1,
297050,132,0,0,132,0,126,0,1,1,1,5,0.5,100,2,150,4.7,263.2,133.06,145.14,133.11,1.92,0.97,48.33,-69,-20,-220,115,140,-1,0.7,-1,-1,19,-1,126,0.5,1,0,0,0,0,41.42,1,0,1,
298050,121,0,0,121,1,121,35625,1,1,1,5,0.5,100,2,150,2.67,266.56,133.85,147.55,133.9,1.97,1.32,51.91,-69,-20,-220,115,140,-1,0.7,-1,-1,19,-1,125,0.5,1,0,0,0,0,41.42,1,0,1,
299051,111,0,0,111,1,111,36806,1,1,1,5,0.5,100,2,150,2.5,268.94,134.71,147.46,134.74,1.84,1.62,48.27,-69,-20,-220,115,140,-1,0.7,-1,-1,19,-1,127,0.6,1,0,0,0,0,41.42,1,0,1,
300050,105,0,0,105,1,105,37764,1,1,1,5,0.5,100,2,150,3.61,272.47,135.43,146.54,135.46,1.63,0.73,50.85,-69,-20,-220,115,140,-1,0.7,-1,-1,19,-1,124,0.6,1,0,0,0,0,41.42,1,0,1,
301050,101,0,0,101,1,101,38663,1,1,1,5,0.5,100,2,150,2.22,274.75,136.17,147.8,136.2,2.63,2.57,48.89,-69,-20,-220,115,140,-1,0.7,-1,-1,19,-1,122,0.6,1,0,0,0,0,41.42,1,0,1,
302050,96,0,0,96,1,92,39706,1,1,1,5,0.5,100,2,150,0.82,275.57,136.93,149.29,136.96,1.1,1.17,50.79,-69,-20,-220,115,140,-1,0.7,-1,-1,19,-1,122,0.8,1,0,0,0,0,41.42,1,0,1,
303069,89,0,0,89,1,89,40756,1,1,1,5,0.5,100,2,150,-0.22,275.33,137.73,150.24,137.78,1.95,1.19,23.43,-69,-20,-220,115,140,-1,0.7,-1,-1,19,-1,122,0.8,1,0,0,0,0,41.42,1,0,1,
304050,84,0,0,84,1,84,41763,1,1,1,5,0.5,100,2,150,-0.58,275,138.48,150.55,138.53,2.5,2.18,48.92,-69,-20,-220,115,140,-1,0.7,-1,-1,19,-1,120,0.8,1,0,0,0,0,41.42,1,0,1,
305050,79,0,0,79,1,79,42756,1,1,1,5,0.5,100,2,150,-1.69,273.12,139.3,151.53,139.33,2.42,1.9,23.43,-69,-20,-220,115,140,-1,0.7,-1,-1,19,-1,122,0.9,1,0,0,0,1,41.42,1,0,1,
306050,74,0,0,74,1,74,43706,1,1,1,5,0.5,100,2,150,-1.98,271.4,140.04,152.06,140.07,1.81,1.11,48.67,-69,-20,-220,115,140,-1,0.8,-1,-1,19,-1,119,0.9,1,0,0,0,1,41.42,1,0,1,
307050,69,0,0,69,1,69,44706,1,1,1,5,0.5,100,2,150,-3.9,267.88,140.83,153.78,140.88,1.98,1.88,105.35,-69,-20,-220,115,140,-1,0.8,-1,-1,19,-1,117,0.9,1,0,0,0,1,41.42,1,0,1,
308050,63,0,0,63,1,63,45806,1,1,1,5,0.5,100,2,150,-4.51,263.6,141.65,154.45,141.68,2.48,1.95,48.76,-69,-20,-220,115,140,-1,0.8,-1,-1,19,-1,119,0.9,1,0,0,0,1,41.42,1,0,1,
309050,57,0,0,57,1,57,46806,1,1,1,5,0.5,100,2,150,-5.58,258.5,142.47,155.57,142.5,2.45,1.75,51.66,-69,-20,-220,115,140,-1,0.8,-1,-1,19,-1,116,0.9,1,0,0,0,1,41.42,1,0,1,
310050,49,0,0,49,0,44,0,1,1,1,5,0.5,100,2,150,-7.58,251.24,143.33,157.66,143.36,0.96,0.45,48.2,-69,-20,-220,115,140,-1,0.8,-1,-1,19,-1,114,0.9,1,0,0,0,1,41.42,1,0,1,
311050,44,0,0,44,0,39,0,1,1,1,5,0.5,100,2,150,-6.3,245.06,144.12,156.41,144.16,2.48,2.1,50.91,-69,-20,-220,115,140,-1,0.8,-1,-1,19,-1,115,0.9,1,0,0,0,0,41.36,1,0,1,
312050,40,0,0,40,0,34,0,1,1,1,5,0.5,100,2,150,-6.68,238.27,144.89,156.76,144.92,1.72,0.73,51.39,-69,-20,-220,115,140,-1,0.8,-1,-1,19,-1,114,0.9,1,0,0,0,0,41.36,1,0,1,
313050,34,0,0,34,1,34,50206,1,1,1,5,0.5,100,2,150,-6,232.4,145.55,156.17,145.59,1.4,1.32,48.28,-69,-20,-220,115,140,-1,0.8,-1,-1,19,-1,112,0.9,1,0,0,0,0,41.36,1,0,1,
314068,34,0,0,34,0,29,0,1,1,1,5,0.5,100,2,150,-5.98,226.15,146.21,155.97,146.26,2.46,1.07,24.12,-69,-20,-220,115,140,-1,0.8,-1,-1,19,-1,114,1.1,1,0,0,0,0,41.36,1,0,1,
315051,30,0,0,30,1,27,52256,1,1,1,5,0.5,100,2,150,-7.13,219.55,146.82,157.1,146.86,2.01,1.98,48.91,-69,-20,-220,115,140,-1,0.8,-1,-1,19,-1,112,1.1,1,0,0,0,0,41.36,1,0,1,
316057,25,0,0,25,1,25,53706,1,1,1,5,0.5,100,2,150,-7.55,211.87,147.48,157.61,147.52,1.44,0.91,136.17,-69,-20,-220,115,140,-1,0.8,-1,-1,19,-1,113,1.1,1,0,0,0,0,41.36,1,0,1,
317050,25,0,0,25,1,25,53706,1,1,1,5,0.5,100,2,150,-5.47,205.53,148.05,155.49,148.07,2.76,1.86,49.43,-69,-20,-220,115,140,-1,0.8,-1,-1,19,-1,111,1.2,1,0,0,0,0,41.36,1,0,1,
318050,20,0,0,20,1,20,55666,1,1,1,5,0.5,100,2,150,-8.28,197.85,148.59,158.37,148.63,1.2,0.88,102.46,-69,-20,-220,115,140,-1,0.8,-1,-1,19,-1,112,1.2,1,0,0,0,0,41.36,1,0,1,
319050,20,0,0,20,0,13,0,1,1,1,5,0.5,100,2,150,-8.97,188.9,149.22,158.85,149.25,2.14,1.73,49.58,-69,-20,-220,115,140,-1,0.8,-1,-1,19,-1,111,1.2,1,0,0,0,0,41.36,1,0,1,
320050,14,0,0,14,1,8,57306,1,1,1,5,0.5,100,2,150,-8.65,180.01,149.86,158.32,149.88,3.19,2.86,49.25,-69,-20,-220,115,140,-1,0.8,-1,-1,19,-1,112,1.2,1,0,0,0,0,10.76,1,0,1,
321050,9,0,0,9,1,9,58156,1,1,1,5,0.5,100,2,150,-7.5,172.64,150.31,157.42,150.34,0.68,0.69,52.09,-69,-20,-220,115,140,-1,0.8,-1,-1,19,-1,113,1.2,1,0,0,0,0,41.21,1,0,1,
322050,9,0,0,9,1,9,58156,1,1,1,5,0.5,100,2,150,-7.4,166.09,150.72,157.66,150.74,2.28,1.82,48.94,-69,-20,-220,115,140,-1,0.8,-1,-1,19,-1,113,1.2,1,0,0,0,0,41.21,1,0,1,
323050,9,0,0,9,1,9,58156,1,1,1,5,0.5,100,2,150,-7.13,158.47,151.16,157.05,151.17,1.61,0.92,51.32,-69,-20,-220,115,140,-1,0.8,-1,-1,19,-1,116,1.2,1,0,0,0,0,41.21,1,0,1,
324050,9,0,0,9,1,5,58156,1,1,1,5,0.5,100,2,150,-8.08,150.85,151.54,158.26,151.55,2.24,1.62,49.46,-69,-20,-220,115,140,-1,0.9,-1,-1,19,-1,112,1.2,1,0,0,0,0,41.12,1,0,1,
325068,4,0,0,4,1,4,62656,1,1,1,5,0.5,100,2,150,-7.25,142.92,151.95,157.1,151.98,1.98,1.59,24.15,-69,-20,-220,115,140,-1,0.9,-1,-1,19,-1,112,1.2,1,0,0,0,0,41.12,1,0,1,
326050,4,0,0,4,1,4,62656,1,1,1,5,0.5,100,2,150,-8.11,135.08,152.29,158.06,152.32,1.88,1.13,48.82,-69,-20,-220,115,140,-1,0.9,-1,-1,19,-1,112,1.3,1,0,0,0,0,41.12,1,0,1,
327050,4,0,0,4,1,4,62656,1,1,1,5,0.5,100,2,150,-8.32,126.47,152.67,158.4,152.7,1.63,2.24,23.75,-69,-20,-220,115,140,-1,0.9,-1,-1,19,-1,112,1.3,1,0,0,0,0,41.12,1,0,1,
328050,-1,0,0,-1,1,-4,171,1,1,1,5,0.5,100,2,150,-8.75,117.49,153.06,158.55,153.08,3.02,1.47,51.39,-69,-20,-220,115,140,-1,0.9,-1,-1,19,-1,113,1.3,1,0,0,0,0,41.12,1,0,1,
329050,-1,0,0,-1,0,-6,0,1,1,1,5,0.5,100,2,150,-7.94,109.25,153.38,157.99,153.4,1.71,2.05,105.57,-69,-20,-220,115,140,-1,0.9,-1,-1,19,-1,113,1.3,1,0,0,0,0,41.12,1,0,1,
330050,-6,0,0,-6,1,-8,1628,1,1,1,5,0.5,100,2,150,-7.96,101.36,153.66,157.94,153.67,1.58,0.28,51.35,-69,-20,-220,115,140,-1,0.9,-1,-1,19,-1,114,1.3,1,0,0,0,0,41.12,1,0,1,
331051,-6,0,0,-6,1,-10,1628,1,1,1,5,0.5,100,2,150,-9.14,92.93,153.93,159.24,153.94,2.88,2.6,49.02,-69,-20,-220,115,140,-1,0.9,-1,-1,19,-1,109,1.3,1,0,0,0,0,10.73,1,0,1,
332050,-11,0,0,-11,1,-11,4120,1,1,1,5,0.5,100,2,150,-8.11,84.18,154.25,157.91,154.26,1.04,1.46,51.46,-69,-20,-220,115,140,-1,0.9,-1,-1,19,-1,115,1.3,1,0,0,0,0,41.12,1,0,1,
333050,-11,0,0,-11,1,-13,4120,1,1,1,5,0.5,100,2,150,-7.9,77.35,154.4,157.96,154.41,2.31,0.88,48.99,-69,-20,-220,115,140,-1,0.9,-1,-1,19,-1,108,1.3,1,0,0,0,0,41.12,1,0,1,
334050,-11,0,0,-11,1,-14,4120,1,1,1,5,0.5,100,2,150,-7.03,69.93,154.61,156.9,154.61,2.01,2.64,51.98,-69,-20,-220,115,140,-1,0.9,-1,-1,19,-1,109,1.3,1,0,0,0,0,41.12,1,0,1,
335050,-11,0,0,-11,1,-15,4120,1,1,1,5,0.5,100,2,150,-7.54,62.25,154.77,157.53,154.78,2.18,0.48,49.36,-69,-20,-220,115,140,-1,1,-1,-1,19,-1,112,0.5,1,0,0,0,0,41.03,1,0,1,
336070,-16,0,0,-16,1,-16,8220,1,1,1,5,0.5,100,2,150,-8.05,53.82,154.99,158.11,155.01,1.42,1.62,23.53,-69,-20,-220,115,140,-1,1,-1,-1,19,-1,107,0.5,1,0,0,0,0,41.03,1,0,1,
337050,-17,0,0,-17,1,-17,8220,1,1,1,5,0.5,100,2,150,-5.87,47.34,155.12,155.92,155.12,1.83,0.62,51.57,-69,-20,-220,115,140,-1,1.1,-1,-1,19,-1,111,0.5,1,0,0,0,0,41.03,1,0,1,
338057,-17,0,0,-17,1,-17,8220,1,1,1,5,0.5,100,2,150,-6.84,40.44,155.22,157.05,155.22,2.38,1.61,136.69,-69,-20,-220,115,140,-1,1.1,-1,-1,19,-1,110,0.5,1,0,0,0,0,41.03,1,0,1,
339050,-17,0,0,-17,1,-17,8220,1,1,1,5,0.5,100,2,150,-6.02,33.66,155.33,155.97,155.33,1.31,1.09,51.35,-69,-20,-220,115,140,-1,1.1,-1,-1,19,-1,114,0.5,1,0,0,0,0,41.03,1,0,1,
340050,-17,0,0,-17,1,-17,8220,1,1,1,5,0.5,100,2,150,-6.63,27.31,155.38,156.59,155.38,2.24,1.65,102.08,-69,-20,-220,115,140,-1,1.1,-1,-1,19,-1,115,0.5,1,0,0,0,0,41.03,1,0,1,
341050,-17,0,0,-17,1,-17,8220,1,1,1,5,0.5,100,2,150,-5.89,21.29,155.43,155.7,155.44,1.86,1.64,50.58,-69,-20,-220,115,140,-1,1.1,-1,-1,19,-1,115,1.3,1,0,0,0,0,41.03,1,0,1,
342050,-17,0,0,-17,1,-17,8220,1,1,1,5,0.5,100,2,150,-2.92,17.94,155.32,152.93,155.32,1.2,1.4,48.34,-69,-20,-220,115,140,-1,1.1,-1,-1,19,-1,115,1.3,1,0,0,0,0,13.75,1,0,1,
343050,-17,0,0,-17,1,-13,8220,1,1,1,5,0.5,100,2,150,-3.34,14.58,155.2,153.42,155.19,2.14,0.45,51.36,-69,-20,-220,115,140,-1,1.2,-1,-1,19,-1,115,1.3,1,0,0,0,0,40.93,1,0,1,
344050,-11,0,0,-11,1,-11,16270,1,1,1,5,0.5,100,2,150,-6.22,9.08,155.17,156.37,155.17,1.48,1.77,50.74,-69,-20,-220,115,140,-1,1.2,-1,-1,19,-1,111,1.2,1,0,0,0,0,40.93,1,0,1,
345050,-11,0,0,-11,1,-11,16270,1,1,1,5,0.5,100,2,150,-3.56,4.79,155.17,153.44,155.16,1.66,0.96,49.5,-69,-20,-220,115,140,-1,1.2,-1,-1,19,-1,114,1.2,1,0,0,0,0,40.93,1,0,1,
346050,-11,0,0,-11,1,-11,16270,1,1,1,5,0.5,100,2,150,-3.73,1.41,155.06,153.78,155.06,1.98,1.56,50.77,-69,-20,-220,115,140,-1,1.2,-1,-1,19,-1,112,1.2,1,0,0,0,0,15.12,1,0,1,
347070,-11,0,0,-11,1,-11,16270,1,1,1,5,0.5,100,2,150,-5.18,-3.35,155.02,155.18,155.02,2.03,1.05,23.23,-69,-20,-220,115,140,-1,1.2,-1,-1,19,-1,115,1.2,1,0,0,0,0,22.68,1,0,1,
348050,-11,0,0,-11,1,-11,16270,1,1,1,5,0.5,100,2,150,-4.12,-7.59,154.99,154.02,154.99,2.25,1.7,50.66,-69,-20,-220,115,140,-1,1.2,-1,-1,19,-1,114,1.2,1,0,0,0,0,22.68,1,0,1,
349057,-15,0,0,-15,1,-15,21070,1,1,1,5,0.5,100,2,150,-5.33,-12.84,154.99,155.71,154.99,1.48,1.26,136.24,-69,-20,-220,115,140,-1,1.2,-1,-1,19,-1,114,1.2,1,0,0,0,0,22.68,1,0,1,
350050,-19,0,0,-19,1,-22,22120,1,1,1,5,0.5,100,2,150,-5.57,-18.68,155.05,155.34,155.05,1.62,1.35,51.46,-69,-20,-220,115,140,-1,1.2,-1,-1,19,-1,114,1.1,1,0,0,0,0,22.68,1,0,1,
351050,-19,0,0,-19,1,-19,22120,1,1,1,5,0.5,100,2,150,-4.01,-23.16,155.02,154.04,155.02,2.13,1.64,103.09,-69,-20,-220,115,140,-1,1.2,-1,-1,19,-1,113,1.1,1,0,0,0,0,24.26,1,0,1,
352050,-19,0,0,-19,1,-19,22120,1,1,1,5,0.5,100,2,150,-3.6,-26.92,154.97,153.4,154.97,3.52,2.26,48.85,-69,-20,-220,115,140,-1,1.2,-1,-1,19,-1,118,1.1,1,0,0,0,0,22.74,1,0,1,
353050,-23,0,0,-23,1,-23,25120,1,1,1,5,0.5,100,2,150,-4.23,-31.16,154.91,154.2,154.91,0.21,0.36,52.06,-69,-20,-220,115,140,-1,1.2,-1,-1,19,-1,116,1,1,0,0,0,0,22.74,1,0,1,
354050,-23,0,0,-23,1,-23,25120,1,1,1,5,0.5,100,2,150,-4.14,-34.95,154.84,154.24,154.84,3.31,1.78,48.81,-69,-20,-220,115,140,-1,1.2,-1,-1,19,-1,117,1,1,0,0,0,0,22.74,1,0,1,
355050,-23,0,0,-23,1,-23,25120,1,1,1,5,0.5,100,2,150,-4.31,-39.3,154.82,154.29,154.82,1.7,1.36,51.27,-69,-20,-220,115,140,-1,1.2,-1,-1,19,-1,117,1,1,0,0,0,0,22.74,1,0,1,
356050,-27,0,0,-27,1,-29,28027,1,1,1,5,0.5,100,2,150,-3.89,-43.54,154.79,153.8,154.79,1.51,1.69,48.74,-69,-20,-220,115,140,-1,1.2,-1,-1,19,-1,116,1,1,0,0,0,0,9.2,1,0,1,
357050,-27,0,0,-27,1,-27,28027,1,1,1,5,0.5,100,2,150,-2.34,-46.55,154.69,152.32,154.68,1.68,0.25,51.28,-69,-20,-220,115,140,-1,1.2,-1,-1,19,-1,113,1,1,0,0,0,0,40.69,1,0,1,
358070,-27,0,0,-27,1,-27,28027,1,1,1,5,0.5,100,2,150,-3.36,-49.52,154.56,153.73,154.56,2.16,1.54,23.23,-69,-20,-220,115,140,-1,1.2,-1,-1,19,-1,115,1,1,0,0,0,0,40.69,1,0,1,
359050,-27,0,0,-27,1,-27,28027,1,1,1,5,0.5,100,2,150,-3.71,-53.31,154.52,153.65,154.52,1.78,1.47,50.7,-69,-20,-220,115,140,-1,1.2,-1,-1,19,-1,116,1,1,0,0,0,0,40.69,1,0,1,
360057,-27,0,0,-27,0,-32,0,1,1,1,5,0.5,100,2,150,-4.01,-57.23,154.48,154.01,154.48,2.51,1.46,136.61,-69,-20,-220,115,140,-1,1.3,-1,-1,19,-1,114,1,1,0,0,0,0,40.72,1,0,1,
